FullAddress,Latitude,Longitude
"60657, Chicago, IL",41.9403795,-87.65318049999999
"75070, McKinney, TX",33.1593743,-96.68058839999999
"77494, Katy, TX",29.742025,-95.8248352
"60614, Chicago, IL",41.9203468,-87.6433139
"79936, El Paso, TX",31.7599791,-106.287521
"77084, Houston, TX",29.8296506,-95.6668306
"10467, New York, NY",40.8723987,-73.8713099
"60640, Chicago, IL",41.9703133,-87.663045
"77449, Katy, TX",29.8260177,-95.7510475
"94109, San Francisco, CA",37.7929789,-122.4212424
"11226, New York, NY",40.6470923,-73.9536163
"32162, The Villages, FL",28.9121162,-81.986206
"11375, New York, NY",40.7245678,-73.8457658
"11235, New York, NY",40.5860069,-73.9418603
"37013, Nashville, TN",36.0207224,-86.6409554
"90250, Hawthorne, CA",33.9127807,-118.3520389
"60647, Chicago, IL",41.9215421,-87.70248169999999
"37211, Nashville, TN",36.0769945,-86.7114545
"78660, Pflugerville, TX",30.4332061,-97.60057859999999
"60618, Chicago, IL",41.9464283,-87.70740889999999
"10128, New York, NY",40.7826039,-73.9506774
"77573, League City, TX",29.4947986,-95.09110620000001
"77584, Pearland, TX",29.5321026,-95.3207069
"28269, Charlotte, NC",35.3352529,-80.7990185
"79912, El Paso, TX",31.8586994,-106.5466221
"78572, Mission, TX",26.2159066,-98.32529319999999
"94565, Pittsburg, CA",38.0182853,-121.9245556
"30349, Riverdale, GA",33.5726113,-84.4132594
"20002, Washington, DC",38.9052763,-76.98158769999999
"90046, Los Angeles, CA",34.1147313,-118.3637264
"78130, New Braunfels, TX",29.7049806,-98.06834300000001
"78613, Cedar Park, TX",30.5119418,-97.8177601
"20009, Washington, DC",38.9191485,-77.0362967
"75052, Grand Prairie, TX",32.67942,-97.0283383
"10462, New York, NY",40.8382522,-73.8566087
"37042, Clarksville, TN",36.5604306,-87.4405786
"77429, Cypress, TX",30.0141064,-95.6668306
"63376, Saint Peters, MO",38.7874699,-90.6298922
"60613, Chicago, IL",41.9577761,-87.6556468
"77479, Sugar Land, TX",29.5662952,-95.6142558
"30044, Lawrenceville, GA",33.9327331,-84.0695961
"73099, Yukon, OK",35.5067215,-97.76254410000001
"77036, Houston, TX",29.702465,-95.53548160000001
"77433, Cypress, TX",29.9643725,-95.7510475
"10463, New York, NY",40.8803247,-73.9095279
"11230, New York, NY",40.6190629,-73.96537150000002
"60629, Chicago, IL",41.7727709,-87.7123355
"11209, New York, NY",40.6212119,-74.03294989999999
"60625, Chicago, IL",41.9711068,-87.70248169999999
"30043, Lawrenceville, GA",33.9963181,-84.0061661
"75034, Frisco, TX",33.1376528,-96.85654269999999
"11212, New York, NY",40.6639181,-73.9154069
"75287, Dallas, TX",32.9985237,-96.84046
"28277, Charlotte, NC",35.0535496,-80.82116959999999
"85032, Phoenix, AZ",33.6364503,-112.0118669
"7030, Hoboken, NJ",40.744052,-74.0270745
"11214, New York, NY",40.6046106,-73.9982756
"21234, Parkville, MD",39.3773292,-76.5396875
"33160, Sunny Isles Beach, FL",25.9428707,-80.1233802
"78521, Brownsville, TX",25.9739925,-97.33005299999999
"23464, Virginia Beach, VA",36.7973473,-76.18996609999999
"77077, Houston, TX",29.7451163,-95.61951119999999
"94501, Alameda, CA",37.7712165,-122.2824021
"30096, Duluth, GA",33.9812131,-84.15406589999999
"78704, Austin, TX",30.24567279999999,-97.76883579999999
"98052, Redmond, WA",47.6701193,-122.118237
"77379, Tomball, TX",30.0314279,-95.5302337
"75243, Dallas, TX",32.9087285,-96.7386946
"11221, New York, NY",40.6903213,-73.9271644
"78245, San Antonio, TX",29.39781439999999,-98.7371039
"11229, New York, NY",40.59880769999999,-73.9447994
"8701, Lakewood, NJ",40.0807404,-74.2061931
"60619, Chicago, IL",41.7458012,-87.60876379999999
"90034, Los Angeles, CA",34.0324632,-118.395863
"94110, San Francisco, CA",37.7485824,-122.4184108
"78666, San Marcos, TX",29.8942825,-97.9810845
"30024, Suwanee, GA",34.0514898,-84.0712997
"60610, Chicago, IL",41.9003099,-87.63338710000001
"44107, Lakewood, OH",41.4836446,-81.806039
"75067, Lewisville, TX",33.0067086,-96.99609249999999
"33025, Miramar, FL",25.9906428,-80.2793593
"33411, Royal Palm Beach, FL",26.7083984,-80.2306019
"33139, Miami Beach, FL",25.783312,-80.1484407
"11377, New York, NY",40.74133339999999,-73.90364869999999
"90044, Los Angeles, CA",33.9478802,-118.2935891
"48197, Ypsilanti, MI",42.2411499,-83.61299389999999
"2169, Quincy, MA",42.25136819999999,-70.9962875
"23462, Virginia Beach, VA",36.8400852,-76.1493891
"90805, Long Beach, CA",33.8640647,-118.1766294
"66062, Olathe, KS",38.8271089,-94.7898731
"44035, Elyria, OH",41.3683798,-82.10764859999999
"95630, Folsom, CA",38.6061114,-121.1022942
"90650, Norwalk, CA",33.9170666,-118.0725134
"11234, New York, NY",40.6007956,-73.9065883
"92683, Westminster, CA",33.7531536,-118.0010421
"85710, Tucson, AZ",32.2165669,-110.8195292
"78745, Austin, TX",30.2153869,-97.7960118
"11355, New York, NY",40.7493096,-73.8213213
"10314, New York, NY",40.5952146,-74.1827119
"30281, Stockbridge, GA",33.5494383,-84.20679919999999
"32210, Jacksonville, FL",30.2775931,-81.7239979
"37075, Hendersonville, TN",36.3233083,-86.6006249
"94558, Napa, CA",38.2975381,-122.286865
"11215, New York, NY",40.6681669,-73.9800645
"90026, Los Angeles, CA",34.0796167,-118.2585096
"85225, Chandler, AZ",33.3091946,-111.8210866
"91910, Chula Vista, CA",32.6385134,-117.0617553
"87111, Albuquerque, NM",35.1322706,-106.4994889
"28027, Concord, NC",35.4002721,-80.6548882
"6010, Bristol, CT",41.67176480000001,-72.9492703
"78240, San Antonio, TX",29.5269768,-98.61057029999999
"87114, Albuquerque, NM",35.1958704,-106.6939803
"89108, Las Vegas, NV",36.2030945,-115.2244853
"85308, Glendale, AZ",33.664516,-112.2026347
"11211, New York, NY",40.7093358,-73.9565551
"17603, Lancaster, PA",40.0144597,-76.3289941
"93722, Fresno, CA",36.8353312,-119.8930904
"80134, Parker, CO",39.4626087,-104.7754307
"48180, Taylor, MI",42.2164077,-83.2720082
"85281, Tempe, AZ",33.4195602,-111.9462873
"78577, Pharr, TX",26.1947962,-98.1836216
"94533, Fairfield, CA",38.2493627,-122.0399969
"15601, Greensburg, PA",40.3014581,-79.5389289
"95608, Carmichael, CA",38.6272793,-121.3198491
"43081, Westerville, OH",40.1014036,-82.89636039999999
"44060, Mentor, OH",41.6661573,-81.339552
"80013, Aurora, CO",39.6563415,-104.7637619
"33024, Pembroke Pines, FL",26.0195493,-80.22352269999999
"20906, Silver Spring, MD",39.08168209999999,-77.04493269999999
"33009, Hallandale, FL",25.9812024,-80.14837899999999
"90066, Los Angeles, CA",34.0050173,-118.4338345
"43123, Grove City, OH",39.8762258,-83.05761559999999
"97229, Portland, OR",45.5593978,-122.807445
"76028, Burleson, TX",32.5297156,-97.286868
"91709, Chino Hills, CA",33.959453,-117.7256083
"11385, New York, NY",40.6980708,-73.8948295
"85364, Yuma, AZ",32.7056541,-114.678669
"11373, New York, NY",40.737975,-73.8801301
"14850, Ithaca, NY",42.4439614,-76.5018807
"65807, Springfield, MO",37.1756964,-93.3288183
"98012, Bothell, WA",47.837259,-122.2155192
"77459, Missouri City, TX",29.4773092,-95.5302337
"92677, Laguna Niguel, CA",33.5320292,-117.702148
"95823, Sacramento, CA",38.4603864,-121.43419
"33908, Fort Myers, FL",26.5101373,-81.9425701
"44256, Medina, OH",41.143245,-81.8552196
"2148, Malden, MA",42.4326041,-71.0557196
"60620, Chicago, IL",41.7470143,-87.6679765
"45011, Hamilton, OH",39.4296413,-84.5117321
"76063, Mansfield, TX",32.563183,-97.1416926
"33647, Tampa, FL",28.1446449,-82.3560389
"92804, Anaheim, CA",33.82353,-117.9659037
"60634, Chicago, IL",41.947969,-87.78617109999999
"8753, Toms River, NJ",39.9721576,-74.16545889999999
"65203, Columbia, MO",38.9538484,-92.3714428
"47906, West Lafayette, IN",40.4258686,-86.90806549999999
"98103, Seattle, WA",47.6600087,-122.3425575
"92345, Hesperia, CA",34.3627106,-117.2911248
"75228, Dallas, TX",32.8276924,-96.679851
"92126, San Diego, CA",32.9184763,-117.1382404
"90019, Los Angeles, CA",34.0489277,-118.3403506
"43130, Lancaster, OH",39.7135519,-82.6016435
"60016, Des Plaines, IL",42.0488548,-87.8844309
"46307, Crown Point, IN",41.4169806,-87.3653135
"76244, Fort Worth, TX",32.9458766,-97.27607599999999
"28314, Fayetteville, NC",35.0585989,-79.0532061
"27610, Raleigh, NC",35.7482425,-78.5547283
"89121, Las Vegas, NV",36.1165487,-115.0881146
"29732, Rock Hill, SC",34.9944873,-81.0533854
"75056, The Colony, TX",33.0787106,-96.91018059999999
"30040, Cumming, GA",34.2073196,-84.14019259999999
"30188, Woodstock, GA",34.1280759,-84.44877199999999
"79938, El Paso, TX",31.8403844,-105.92299
"92336, Fontana, CA",34.145515,-117.4673845
"99301, Pasco, WA",46.2305049,-119.0922316
"20011, Washington, DC",38.9515473,-77.02766
"77095, Houston, TX",29.9108312,-95.65631189999999
"91911, Chula Vista, CA",32.6059744,-117.0441009
"77845, College Station, TX",30.6210482,-96.3255016
"92503, Riverside, CA",33.8833867,-117.4438924
"94536, Fremont, CA",37.5641425,-122.004179
"7002, Bayonne, NJ",40.658801,-74.1063776
"27587, Wake Forest, NC",35.9798734,-78.50972279999999
"21740, Hagerstown, MD",39.6417629,-77.71999319999999
"11233, New York, NY",40.6795939,-73.92128579999999
"7302, Jersey City, NJ",40.7218318,-74.0447003
"90280, South Gate, CA",33.954737,-118.2120161
"22191, Woodbridge, VA",38.658172,-77.24970499999999
"19111, Philadelphia, PA",40.0635817,-75.07863569999999
"89117, Las Vegas, NV",36.1453333,-115.2778317
"87120, Albuquerque, NM",35.1509567,-106.7470536
"43230, Gahanna, OH",40.0388765,-82.8748301
"40475, Richmond, KY",37.748152,-84.29582599999999
"46227, Indianapolis, IN",39.6795709,-86.1319901
"11236, New York, NY",40.63871959999999,-73.8948295
"91730, Rancho Cucamonga, CA",34.0965313,-117.5848025
"23320, Chesapeake, VA",36.7578013,-76.2131474
"74012, Broken Arrow, OK",36.05826630000001,-95.7932008
"90201, Bell, CA",33.96672119999999,-118.1766294
"92592, Temecula, CA",33.43806010000001,-117.0087877
"32244, Jacksonville, FL",30.2102306,-81.7458845
"21117, Owings Mills, MD",39.4195499,-76.7802528
"92109, San Diego, CA",32.7920948,-117.2323367
"34787, Winter Garden, FL",28.5652787,-81.58618469999999
"77450, Cinco Ranch, TX",29.7388418,-95.7580048
"92101, San Diego, CA",32.7269669,-117.1647094
"32822, Orlando, FL",28.4750405,-81.2849169
"30080, Smyrna, GA",33.8806897,-84.5064881
"7093, West New York, NJ",40.7889063,-74.01618119999999
"60626, Chicago, IL",42.0099321,-87.663045
"90004, Los Angeles, CA",34.0748887,-118.3082034
"28078, Huntersville, NC",35.41107,-80.84271199999999
"34135, Bonita Springs, FL",26.3582748,-81.7458845
"90706, Bellflower, CA",33.8822393,-118.1239717
"48103, Ann Arbor, MI",42.24758629999999,-83.8260884
"30062, Marietta, GA",33.9957883,-84.46976629999999
"33186, The Crossings, FL",25.6630546,-80.4073392
"30052, Loganville, GA",33.8389977,-83.90073819999999
"30041, Cumming, GA",34.2073196,-84.14019259999999
"75217, Dallas, TX",32.7099886,-96.6745042
"33012, Hialeah, FL",25.8641207,-80.30459669999999
"30331, Atlanta, GA",33.69856499999999,-84.54318669999999
"11372, New York, NY",40.7527924,-73.8801301
"32256, Jacksonville, FL",30.2205397,-81.5537192
"34711, Clermont, FL",28.5366442,-81.71305219999999
"60649, Chicago, IL",41.7597921,-87.56430399999999
"92335, Fontana, CA",34.08378700000001,-117.4673845
"37130, Murfreesboro, TN",35.8807375,-86.317392
"23454, Virginia Beach, VA",36.8653194,-76.0507949
"38401, Columbia, TN",35.6150716,-87.0352831
"92021, El Cajon, CA",32.8324351,-116.8792553
"48185, Westland, MI",42.3358116,-83.3842808
"93065, Simi Valley, CA",34.2774306,-118.7897558
"91342, Los Angeles, CA",34.3023759,-118.3695699
"44130, Parma Heights, OH",41.39005179999999,-81.7595769
"95747, Roseville, CA",38.7902545,-121.3770336
"32218, Jacksonville, FL",30.4686832,-81.6692532
"95123, San Jose, CA",37.2374847,-121.8277925
"43026, Hilliard, OH",40.01616,-83.1756188
"20019, Washington, DC",38.8910932,-76.94702199999999
"22193, Woodbridge, VA",38.6418278,-77.3439283
"45840, Findlay, OH",41.0391283,-83.6502309
"80634, Greeley, CO",40.3962637,-104.7871004
"2155, Medford, MA",42.4274971,-71.10920120000002
"92627, Costa Mesa, CA",33.6496252,-117.9190418
"85705, Tucson, AZ",32.2745229,-110.9864294
"20878, Gaithersburg, MD",39.10480320000001,-77.25201009999999
"30022, Johns Creek, GA",34.029613,-84.238417
"23666, Hampton, VA",37.0538822,-76.39845369999999
"2360, Plymouth, MA",41.8804637,-70.645473
"33064, Pompano Beach, FL",26.2778269,-80.109357
"20001, Washington, DC",38.912068,-77.0190228
"29072, Lexington, SC",33.9815369,-81.2362107
"11218, New York, NY",40.6483744,-73.9800645
"33027, Miramar, FL",25.9904176,-80.3547286
"89052, Henderson, NV",35.952556,-115.0228736
"90011, Los Angeles, CA",34.007889,-118.2585096
"75206, Dallas, TX",32.8225166,-96.77616859999999
"11223, New York, NY",40.6009233,-73.977126
"32174, Ormond Beach, FL",29.2858129,-81.0558894
"33063, Margate, FL",26.2551386,-80.2042436
"87121, Albuquerque, NM",35.1128064,-106.8650395
"43701, Zanesville, OH",39.9403453,-82.0131924
"90025, Los Angeles, CA",34.0448583,-118.4484367
"72401, Jonesboro, AR",35.8916172,-90.658333
"90027, Los Angeles, CA",34.1220545,-118.2935891
"10701, Yonkers, NY",40.9413523,-73.8713099
"44077, Painesville, OH",41.7244885,-81.245657
"75035, Frisco, TX",33.1541165,-96.76010570000001
"8831, Monroe, NJ",40.3209253,-74.4521504
"77082, Houston, TX",29.7253361,-95.67735119999999
"34953, Port Saint Lucie, FL",27.2420429,-80.38813329999999
"94544, Hayward, CA",37.6270256,-122.0496521
"19124, Philadelphia, PA",40.0149445,-75.0903154
"78641, Leander, TX",30.5390145,-97.9374948
"60616, Chicago, IL",41.8403395,-87.6137011
"97402, Eugene, OR",44.0431493,-123.2259181
"43228, Columbus, OH",39.9571056,-83.1273705
"33313, Lauderhill, FL",26.1514248,-80.22655449999999
"75150, Mesquite, TX",32.824634,-96.6317461
"95051, Santa Clara, CA",37.3598283,-121.9814354
"20147, Ashburn, VA",39.0418129,-77.47444209999999
"55901, Rochester, MN",44.0780552,-92.5098914
"23452, Virginia Beach, VA",36.849734,-76.097201
"91710, Chino, CA",34.0120229,-117.6786847
"91335, Los Angeles, CA",34.2035088,-118.5389414
"35242, Hoover, AL",33.4165524,-86.681253
"30127, Powder Springs, GA",33.8595491,-84.683824
"71913, Hot Springs, AR",34.5077615,-93.05460029999999
"90731, Los Angeles, CA",33.7241323,-118.2643567
"29730, Rock Hill, SC",34.9037259,-81.0092062
"80015, Aurora, CO",39.6288155,-104.7812654
"32225, Jacksonville, FL",30.3658304,-81.49379929999999
"95687, Vacaville, CA",38.3286205,-121.9359339
"27713, Durham, NC",35.890231,-78.9175088
"77840, College Station, TX",30.616559,-96.31197429999999
"30004, Milton, GA",34.17630630000001,-84.2910759
"43068, Reynoldsburg, OH",39.9518394,-82.7886395
"93550, Palmdale, CA",34.3579404,-118.0654445
"11208, New York, NY",40.6749343,-73.8713099
"89123, Las Vegas, NV",36.0357492,-115.1533426
"94509, Antioch, CA",38.0083802,-121.7993168
"80525, Fort Collins, CO",40.5417839,-105.044052
"78501, McAllen, TX",26.2188442,-98.2322355
"48823, East Lansing, MI",42.758734,-84.44877199999999
"63123, Affton, MO",38.5506084,-90.3331719
"40601, Frankfort, KY",38.1950324,-84.8784682
"21215, Baltimore, MD",39.3416271,-76.68169619999999
"29464, Mount Pleasant, SC",32.8234848,-79.8520818
"60622, Chicago, IL",41.9013087,-87.68276759999999
"7087, Union City, NJ",40.773694,-74.0270745
"32828, Orlando, FL",28.5374094,-81.1747498
"77057, Houston, TX",29.7503969,-95.4935119
"23451, Virginia Beach, VA",36.8643566,-75.9985693
"23223, Richmond, VA",37.5621276,-77.3668965
"60615, Chicago, IL",41.8003921,-87.603826
"42101, Bowling Green, KY",36.9685219,-86.4808043
"45601, Chillicothe, OH",39.3331197,-82.9824019
"30135, Douglasville, GA",33.6630087,-84.75244819999999
"27284, Kernersville, NC",36.1322707,-80.0758425
"19446, Lansdale, PA",40.2414952,-75.2837862
"14221, Amherst, NY",42.9734553,-78.713608
"98115, Seattle, WA",47.6849444,-122.2982224
"60641, Chicago, IL",41.9472058,-87.74680710000001
"94122, San Francisco, CA",37.7597481,-122.4750292
"93727, Fresno, CA",36.7486376,-119.7078532
"76116, Fort Worth, TX",32.717251,-97.4435441
"21122, Pasadena, MD",39.12914019999999,-76.4794435
"93536, Lancaster, CA",34.703947,-118.1481016
"93535, Lancaster, CA",34.7311394,-117.8780275
"85251, Scottsdale, AZ",33.4986286,-111.9224398
"60453, Oak Lawn, IL",41.7087701,-87.74680710000001
"33319, Lauderhill, FL",26.1865098,-80.22655449999999
"78249, San Antonio, TX",29.5676137,-98.6050736
"19020, Bensalem, PA",40.09944249999999,-74.9325683
"33321, Tamarac, FL",26.2128609,-80.2497707
"95758, Elk Grove, CA",38.427766,-121.4798948
"60660, Chicago, IL",41.9901263,-87.663045
"93306, Bakersfield, CA",35.4516124,-118.7897558
"73160, Moore, OK",35.3459327,-97.47059349999999
"14580, Webster, NY",43.2122851,-77.4299939
"19720, New Castle, DE",39.6620397,-75.5668166
"89031, North Las Vegas, NV",36.2608162,-115.1711298
"93257, Porterville, CA",36.0651431,-119.0164344
"19120, Philadelphia, PA",40.0380778,-75.1136721
"27707, Durham, NC",35.9530958,-78.9571069
"11204, New York, NY",40.6195067,-73.9859414
"93307, Bakersfield, CA",35.2421103,-118.9761519
"33467, Greenacres, FL",26.5861576,-80.1763467
"22204, Arlington, VA",38.8565647,-77.0967357
"20874, Germantown, MD",39.1348627,-77.2922332
"37128, Murfreesboro, TN",35.7972575,-86.438974
"93309, Bakersfield, CA",35.3515611,-119.0576298
"95035, Milpitas, CA",37.4323341,-121.8995741
"31419, Savannah, GA",31.9708128,-81.15865149999999
"66061, Olathe, KS",38.9071042,-94.8728093
"11219, New York, NY",40.6310753,-73.9976946
"21222, Dundalk, MD",39.2632524,-76.4910093
"60056, Mount Prospect, IL",42.0646736,-87.93838219999999
"27703, Durham, NC",35.9657059,-78.8042828
"85282, Tempe, AZ",33.3897576,-111.9343636
"29223, Columbia, SC",34.1058378,-80.92077370000001
"93230, Hanford, CA",36.3274502,-119.6456844
"72712, Bentonville, AR",36.3840171,-94.21283369999999
"29445, Goose Creek, SC",33.0026132,-79.99759159999999
"75043, Garland, TX",32.8493511,-96.5890166
"33157, Village of Palmetto Bay, FL",25.6085924,-80.3380213
"90802, Long Beach, CA",33.7415317,-118.1941785
"94538, Fremont, CA",37.5042267,-121.9643745
"37064, Franklin, TN",35.9238901,-86.8676866
"98682, Vancouver, WA",45.6585294,-122.4979879
"94541, Hayward, CA",37.6737239,-122.1007867
"95076, Watsonville, CA",36.910231,-121.7568946
"60085, Waukegan, IL",42.3641878,-87.86479609999999
"98133, Shoreline, WA",47.7393027,-122.3435336
"28601, Hickory, NC",35.7655407,-81.32893969999999
"70726, Denham Springs, LA",30.48685639999999,-90.95621249999999
"77007, Houston, TX",29.7765065,-95.4201377
"75002, Allen, TX",33.1044628,-96.642433
"92630, Lake Forest, CA",33.6447519,-117.6845508
"93274, Tulare, CA",36.2077288,-119.3473379
"31907, Columbus, GA",32.4559867,-84.87763919999999
"28216, Charlotte, NC",35.3202223,-80.8875861
"38655, Oxford, MS",34.3659868,-89.5188246
"46143, Greenwood, IN",39.5963318,-86.0835415
"37167, Smyrna, TN",35.96321330000001,-86.5299673
"32792, Goldenrod, FL",28.6102772,-81.2886784
"92647, Huntington Beach, CA",33.7222674,-118.0010421
"31088, Warner Robins, GA",32.590481,-83.624201
"36117, Montgomery, AL",32.3822577,-86.1914604
"37122, Mount Juliet, TN",36.200055,-86.5186054
"32246, Jacksonville, FL",30.3093218,-81.50477719999999
"20020, Washington, DC",38.8641775,-76.98158769999999
"77521, Baytown, TX",29.8120015,-94.9558696
"99208, Spokane, WA",47.7872368,-117.4644801
"77083, Mission Bend, TX",29.697594,-95.6510533
"63021, Ballwin, MO",38.557323,-90.5352356
"11368, New York, NY",40.7506343,-73.8477874
"29681, Simpsonville, SC",34.7692466,-82.2365981
"28205, Charlotte, NC",35.2263714,-80.7990185
"30253, McDonough, GA",33.4471669,-84.1423703
"29485, Summerville, SC",32.95172480000001,-80.1986649
"92104, San Diego, CA",32.7398671,-117.1205925
"92115, San Diego, CA",32.7612759,-117.0735241
"90631, La Habra, CA",33.9318591,-117.946137
"15301, Washington, PA",40.17396,-80.2461714
"6516, West Haven, CT",41.2723527,-72.94981290000001
"27705, Durham, NC",36.025609,-78.9853813
"97045, Oregon City, OR",45.3556099,-122.605853
"1960, Peabody, MA",42.5357932,-70.9665682
"17331, Penn, PA",40.328958,-79.6411537
"32608, Gainesville, FL",29.6156734,-82.3659168
"78758, Austin, TX",30.3870686,-97.70365609999999
"11203, New York, NY",40.6515882,-73.93304289999999
"33511, Brandon, FL",27.9082595,-82.2909146
"63129, Oakville, MO",38.4700532,-90.3045604
"85022, Phoenix, AZ",33.6275483,-112.0595603
"92154, San Diego, CA",32.5967198,-116.9028125
"85204, Mesa, AZ",33.3990327,-111.7972384
"94513, Brentwood, CA",37.931868,-121.6957863
"87124, Rio Rancho, NM",35.2416127,-106.6968553
"78251, San Antonio, TX",29.4651184,-98.6765618
"78741, Austin, TX",30.2259488,-97.7145152
"89110, Las Vegas, NV",36.1678611,-115.0406679
"92646, Huntington Beach, CA",33.6587745,-117.9659037
"94587, Union City, CA",37.5952304,-122.043969
"37040, Clarksville, TN",36.4722803,-87.3612205
"74133, Tulsa, OK",36.0428053,-95.8881542
"98122, Seattle, WA",47.6087583,-122.2964235
"11220, New York, NY",40.6385229,-74.0153231
"30066, Marietta, GA",34.0198844,-84.5117321
"21224, Baltimore, MD",39.2713976,-76.5603828
"28215, Charlotte, NC",35.2413572,-80.7103532
"20852, North Bethesda, MD",39.0542102,-77.1197521
"85142, Queen Creek, AZ",33.2028363,-111.642224
"33458, Jupiter, FL",26.931397,-80.109357
"98632, Longview, WA",46.1381676,-122.9381672
"95355, Modesto, CA",37.6704504,-120.9302603
"83301, Twin Falls, ID",42.5558381,-114.4700518
"75211, Dallas, TX",32.7433629,-96.8887202
"59901, Kalispell, MT",48.1919889,-114.3168131
"95670, Rancho Cordova, CA",38.5961116,-121.2969674
"85345, Peoria, AZ",33.5704697,-112.2503239
"21061, Glen Burnie, MD",39.1648588,-76.6239226
"32765, Oviedo, FL",28.6777437,-81.19679579999999
"92376, Rialto, CA",34.1064001,-117.3703235
"43229, Columbus, OH",40.0862602,-82.98241209999999
"60148, Lombard, IL",41.8725524,-88.0020589
"97401, Eugene, OR",44.0637173,-123.0847061
"37421, Chattanooga, TN",35.041539,-85.1583064
"37066, Gallatin, TN",36.3872073,-86.4523215
"95014, Cupertino, CA",37.31317,-122.0723816
"94568, Dublin, CA",37.70491080000001,-121.9096158
"37027, Brentwood, TN",35.9805462,-86.761749
"45044, Middletown, OH",39.5038205,-84.3939224
"19067, Lower Makefield, PA",40.2186572,-74.8507131
"19134, Philadelphia, PA",39.9863531,-75.1019942
"28210, Charlotte, NC",35.1274285,-80.8599193
"33414, Wellington, FL",26.6374761,-80.2432839
"30263, Newnan, GA",33.3806716,-84.79965729999999
"92105, San Diego, CA",32.7348953,-117.0970596
"28227, Mint Hill, NC",35.1825962,-80.6548882
"45013, Hamilton, OH",39.39886790000001,-84.5587838
"85008, Phoenix, AZ",33.4660406,-112.0118669
"11216, New York, NY",40.6788319,-73.9506774
"70072, Marrero, LA",29.8993723,-90.1003506
"27519, Cary, NC",35.8019588,-78.8948741
"23322, Chesapeake, VA",36.6215976,-76.2247366
"94080, South San Francisco, CA",37.6537343,-122.4083383
"38305, Jackson, TN",35.6684779,-88.7301525
"33433, Boca Raton, FL",26.3510294,-80.15402259999999
"92122, San Diego, CA",32.8563846,-117.2029363
"42701, Elizabethtown, KY",37.7043065,-85.87123849999999
"89074, Henderson, NV",36.0376448,-115.0762536
"89103, Las Vegas, NV",36.1104125,-115.2067011
"77346, Atascocita, TX",29.9997656,-95.1744903
"23455, Virginia Beach, VA",36.8974486,-76.1435915
"14094, Lockport, NY",43.1706128,-78.6903098
"47150, New Albany, IN",38.2856247,-85.8241312
"79924, El Paso, TX",31.8964712,-106.4288088
"30058, Lithonia, GA",33.7123305,-84.1051939
"30047, Lilburn, GA",33.8901036,-84.14297189999999
"12180, Troy, NY",42.7284117,-73.69178509999999
"30101, Acworth, GA",34.0659329,-84.6768796
"33015, Country Club, FL",25.9358702,-80.3268812
"60608, Chicago, IL",41.8492122,-87.6713199
"41042, Florence, KY",38.9803309,-84.6583745
"92648, Huntington Beach, CA",33.6781963,-118.0127534
"55124, Apple Valley, MN",44.74973260000001,-93.19805269999999
"32303, Tallahassee, FL",30.5099431,-84.3647199
"78753, Austin, TX",30.3889868,-97.6710889
"92620, Irvine, CA",33.7073908,-117.7666567
"94112, San Francisco, CA",37.72254909999999,-122.4410618
"37129, Murfreesboro, TN",35.9173416,-86.4490926
"90640, Montebello, CA",34.0149091,-118.1064156
"78759, Austin, TX",30.401356,-97.7525352
"48439, Grand Blanc, MI",42.9275277,-83.6299518
"89148, Las Vegas, NV",36.0612353,-115.2896852
"78254, San Antonio, TX",29.5330493,-98.78116449999999
"33141, Miami Beach, FL",25.8535635,-80.1484407
"95112, San Jose, CA",37.3456227,-121.8847222
"78664, Round Rock, TX",30.5041381,-97.6602365
"96815, Honolulu, HI",21.2700357,-157.8182298
"94087, Sunnyvale, CA",37.3492097,-122.0326019
"98208, Seattle Hill-Silver Firs, WA",47.8743405,-122.1707751
"19148, Philadelphia, PA",39.9120596,-75.14870069999999
"7305, Jersey City, NJ",40.7008528,-74.0887576
"32825, Orlando, FL",28.5417016,-81.2408689
"53704, Madison, WI",43.1438143,-89.35114949999999
"1201, Pittsfield, MA",42.4500845,-73.2453824
"20904, Silver Spring, MD",39.0533891,-76.9758274
"95648, Lincoln, CA",38.891565,-121.2930079
"84404, Ogden, UT",41.2185625,-111.97051
"59102, Billings, MT",45.78888569999999,-108.5908853
"8759, Manchester, NJ",39.9549152,-74.3822058
"77070, Houston, TX",29.9811013,-95.5675483
"2151, Revere, MA",42.4224283,-70.9962875
"19131, Philadelphia, PA",39.9915379,-75.21873459999999
"96706, Ewa Beach, HI",21.3123894,-158.0100917
"78209, San Antonio, TX",29.4854054,-98.4513272
"75204, Dallas, TX",32.799475,-96.78687939999999
"39759, Starkville, MS",33.4503998,-88.81838719999999
"95125, San Jose, CA",37.2909813,-121.8904136
"33436, Boynton Beach, FL",26.5114554,-80.109357
"90036, Los Angeles, CA",34.0664817,-118.3520389
"97124, Hillsboro, OR",45.5442824,-122.9521023
"54601, La Crosse, WI",43.8041647,-91.15449629999999
"33463, Greenacres, FL",26.6064003,-80.1316927
"29579, Forestbrook, SC",33.7223935,-78.9580872
"33021, Hollywood, FL",26.0197012,-80.1819268
"33324, Plantation, FL",26.1076663,-80.2711588
"6511, New Haven, CT",41.3212912,-72.9283391
"7047, North Bergen, NJ",40.8053731,-74.0241367
"92562, Murrieta, CA",33.5612623,-117.2105183
"98034, Kirkland, WA",47.71481259999999,-122.2031264
"8873, Franklin, NJ",40.4933734,-74.5228916
"76179, Fort Worth, TX",32.8601513,-97.3641377
"77375, Tomball, TX",30.1098349,-95.5827334
"11354, New York, NY",40.7699016,-73.8272029
"30067, Marietta, GA",33.9290987,-84.46976629999999
"60004, Arlington Heights, IL",42.1099506,-87.9824758
"20910, Silver Spring, MD",39.0041504,-77.03917539999999
"11746, Huntington, NY",40.8126648,-73.3590802
"30075, Roswell, GA",34.0586259,-84.38574419999999
"85255, Scottsdale, AZ",33.6803004,-111.8330106
"53711, Madison, WI",43.01563729999999,-89.4318454
"2780, Taunton, MA",41.9241038,-71.121085
"2135, Boston, MA",42.3555076,-71.0565364
"76137, Fort Worth, TX",32.85491650000001,-97.29766169999999
"34668, Port Richey, FL",28.2716755,-82.71954509999999
"45140, Loveland, OH",39.2689476,-84.26382600000001
"92117, San Diego, CA",32.8250767,-117.2029363
"32771, Sanford, FL",28.800557,-81.30693149999999
"43302, Marion, OH",40.5886699,-83.1285242
"8527, Jackson, NJ",40.0918895,-74.35874729999999
"92130, San Diego, CA",32.9436607,-117.2088167
"22407, Fredericksburg, VA",38.3003751,-77.4588059
"22201, Arlington, VA",38.8845126,-77.0938583
"19711, Newark, DE",39.7215173,-75.7487779
"92128, San Diego, CA",33.0013938,-117.0735241
"89147, Las Vegas, NV",36.1148054,-115.2778317
"22192, Woodbridge, VA",38.658172,-77.24970499999999
"7728, Freehold, NJ",40.2303787,-74.27661859999999
"17601, Manheim, PA",40.16342789999999,-76.3949614
"94591, Vallejo, CA",38.1256242,-122.1973081
"48066, Roseville, MI",42.50007189999999,-82.9394002
"85201, Mesa, AZ",33.4329528,-111.8449346
"91331, Los Angeles, CA",34.2570374,-118.4279933
"94086, Sunnyvale, CA",37.371859,-122.0212337
"92563, Murrieta, CA",33.5784347,-117.1617685
"29483, Summerville, SC",33.0188755,-80.17581009999999
"32839, Orlando, FL",28.4889021,-81.4114142
"33023, Miramar, FL",25.9868744,-80.2153998
"61761, Normal, IL",40.5183163,-88.9701082
"45040, Mason, OH",39.35857590000001,-84.3226488
"19702, Newark, DE",39.6837226,-75.74965720000002
"63301, Saint Charles, MO",38.7833145,-90.4815802
"30144, Kennesaw, GA",34.0235914,-84.59557319999999
"70065, Kenner, LA",29.9940924,-90.2417434
"91801, Alhambra, CA",34.0837958,-118.1181199
"78748, Austin, TX",30.168207,-97.8177601
"79424, Lubbock, TX",33.47561,-101.9233964
"83709, Boise, ID",43.5516566,-116.29879
"19380, West Chester, PA",39.959884,-75.6062135
"72034, Conway, AR",35.0468028,-92.4703057
"27106, Winston-Salem, NC",36.1426113,-80.33245140000001
"90042, Los Angeles, CA",34.1175895,-118.188329
"29588, Socastee, SC",33.683504,-78.9983676
"76051, Grapevine, TX",32.9464268,-97.0713572
"45424, Huber Heights, OH",39.853124,-84.1224036
"92020, El Cajon, CA",32.79632220000001,-116.9675814
"21218, Baltimore, MD",39.3322127,-76.6008334
"28025, Concord, NC",35.3898417,-80.5216184
"93308, Oildale, CA",35.4196799,-119.0195452
"94553, Martinez, CA",38.0193657,-122.1341321
"73013, Edmond, OK",35.6264403,-97.5138947
"80219, Denver, CO",39.6961606,-105.0382076
"30907, Martinez, GA",33.53153440000001,-82.0733985
"10466, New York, NY",40.8887394,-73.8477874
"78520, Brownsville, TX",25.9964301,-97.5788975
"92882, Corona, CA",33.84374830000001,-117.6082774
"94015, Daly City, CA",37.68000019999999,-122.4863492
"34748, Leesburg, FL",28.7898508,-81.87706709999999
"29229, Columbia, SC",34.15854789999999,-80.8875861
"24060, Blacksburg, VA",37.2300668,-80.4150745
"38654, Olive Branch, MS",34.9617604,-89.8295315
"97504, Medford, OR",42.3376195,-122.7855028
"33308, Fort Lauderdale, FL",26.1897731,-80.1037721
"7055, Passaic, NJ",40.8597746,-74.12986839999999
"73505, Lawton, OK",34.631685,-98.5062007
"27603, Raleigh, NC",35.6631125,-78.6795836
"60402, Berwyn, IL",41.85058739999999,-87.7936685
"92399, Yucaipa, CA",34.0593543,-117.0087877
"32137, Palm Coast, FL",29.6250683,-81.2188355
"98225, Bellingham, WA",48.7562157,-122.4894588
"75098, Wylie, TX",33.0215727,-96.5143087
"11374, New York, NY",40.72557219999999,-73.8624893
"33312, Fort Lauderdale, FL",26.0898957,-80.1819268
"85351, Sun City, AZ",33.60206580000001,-112.280129
"75115, Desoto, TX",32.5896998,-96.8570738
"23112, Midlothian, VA",37.5061069,-77.6490005
"65202, Columbia, MO",39.0013395,-92.3128326
"78228, San Antonio, TX",29.455339,-98.56111419999999
"84015, Clearfield, UT",41.1107771,-112.0260538
"60638, Chicago, IL",41.78874829999999,-87.7664934
"78223, San Antonio, TX",29.3037971,-98.40745729999999
"30319, Brookhaven, GA",33.8730946,-84.33842899999999
"7003, Bloomfield, NJ",40.7989068,-74.1885825
"77373, Spring, TX",30.0799405,-95.41716009999999
"99336, Kennewick, WA",46.2138054,-119.161041
"97206, Portland, OR",45.48563720000001,-122.5946256
"79109, Amarillo, TX",35.1633874,-101.900579
"92201, Indio, CA",33.7140561,-116.2186488
"38016, Memphis, TN",35.1816448,-89.7661527
"19382, West Chester, PA",39.959884,-75.6062135
"33437, Boynton Beach, FL",26.5145591,-80.15402259999999
"23456, Virginia Beach, VA",36.7358202,-76.02758589999999
"44646, Massillon, OH",40.8171314,-81.50477719999999
"75093, Plano, TX",33.0386278,-96.8243812
"28645, Lenoir, NC",35.9140196,-81.5389849
"78230, San Antonio, TX",29.542044,-98.555621
"92704, Santa Ana, CA",33.7246333,-117.9073244
"95008, Campbell, CA",37.2770029,-121.9529992
"22030, Fairfax, VA",38.8459879,-77.3053035
"60639, Chicago, IL",41.9225138,-87.7517295
"48187, Canton, MI",42.3373253,-83.4963567
"7306, Jersey City, NJ",40.7329808,-74.0711359
"63366, O Fallon, MO",38.8809704,-90.73427339999999
"80016, Aurora, CO",39.5815071,-104.7170954
"36695, Mobile, AL",30.620114,-88.2753144
"63116, Saint Louis, MO",38.5844866,-90.266699
"92056, Oceanside, CA",33.192168,-117.3028803
"19145, Philadelphia, PA",39.908085,-75.1953934
"95350, Modesto, CA",37.6697463,-120.9991032
"34698, Dunedin, FL",28.0339553,-82.78324889999999
"34997, Stuart, FL",27.197548,-80.2528257
"97405, Eugene, OR",44.052121,-123.0896705
"96797, Waipahu, HI",21.3842759,-158.0029225
"39503, Gulfport, MS",30.4560609,-89.1515476
"61265, Moline, IL",41.4902075,-90.4974359
"92071, Santee, CA",32.8678728,-116.9970153
"80538, Loveland, CO",40.395451,-105.0745837
"78045, Laredo, TX",27.5035613,-99.5075519
"21206, Baltimore, MD",39.3342834,-76.5314817
"8021, Lindenwold, NJ",39.8073767,-75.0026972
"92024, Encinitas, CA",33.052083,-117.2793685
"85383, Peoria, AZ",33.7868136,-112.28609
"27606, Raleigh, NC",35.7418297,-78.713608
"92656, Aliso Viejo, CA",33.5714289,-117.7314729
"92553, Moreno Valley, CA",33.924658,-117.2499749
"6810, Danbury, CT",41.3755722,-73.45337789999999
"10473, New York, NY",40.811547,-73.859549
"56001, Mankato, MN",44.1661456,-94.0055647
"22003, Annandale, VA",38.8327423,-77.2060241
"46032, Carmel, IN",39.9693,-86.16500239999999
"85374, Surprise, AZ",33.657298,-112.4649083
"45069, West Chester, OH",39.341965,-84.406761
"23225, Richmond, VA",37.5374438,-77.5275463
"28546, Jacksonville, NC",34.8425818,-77.4013403
"89119, Las Vegas, NV",36.0765176,-115.1533426
"95624, Elk Grove, CA",38.4244019,-121.3312882
"4401, Bangor, ME",44.8016128,-68.7712257
"63303, Saint Charles, MO",38.7250374,-90.554149
"44124, Lyndhurst, OH",41.5200523,-81.4887315
"34952, Port Saint Lucie, FL",27.2932971,-80.2878794
"11210, New York, NY",40.6285158,-73.9447994
"78253, San Antonio, TX",29.4733158,-98.8142264
"45238, Cincinnati, OH",39.1031327,-84.6165146
"30114, Canton, GA",34.2367621,-84.4907621
"36830, Auburn, AL",32.4796915,-85.49941919999999
"78550, Harlingen, TX",26.2625297,-97.654811
"97702, Bend, OR",44.0581728,-121.3153096
"27529, Garner, NC",35.6544684,-78.5887951
"33418, Palm Beach Gardens, FL",26.8645934,-80.15402259999999
"92509, Riverside, CA",33.9996052,-117.4321452
"32068, Middleburg, FL",30.0688512,-81.8603778
"96720, Hilo, HI",19.7216023,-155.084887
"92626, Costa Mesa, CA",33.6834142,-117.9073244
"96817, Honolulu, HI",21.3433967,-157.8390944
"90006, Los Angeles, CA",34.0470832,-118.2965121
"37043, Clarksville, TN",36.5128173,-87.2419299
"27616, Raleigh, NC",35.8774409,-78.5547283
"12550, Newburgh, NY",41.5034271,-74.0104178
"30606, Athens, GA",33.9448436,-83.4323375
"75040, Garland, TX",32.9368872,-96.6317461
"33065, Coral Springs, FL",26.2706389,-80.26001
"10940, Middletown, NY",41.4459271,-74.42293409999999
"89129, Las Vegas, NV",36.2330997,-115.2719048
"33914, Cape Coral, FL",26.5606909,-82.00801400000002
"60073, Round Lake Beach, IL",42.37168810000001,-88.0900815
"92805, Anaheim, CA",33.8276052,-117.9073244
"19320, Valley, PA",39.9831492,-75.8238302
"92880, Eastvale, CA",33.9608961,-117.5931738
"93003, Ventura, CA",34.2985355,-119.2204548
"75007, Carrollton, TX",33.0126814,-96.8887202
"85254, Phoenix, AZ",33.6071829,-111.9403254
"23185, Williamsburg, VA",37.2757305,-76.7098049
"20850, Rockville, MD",39.0839994,-77.1527813
"87109, Albuquerque, NM",35.15900680000001,-106.5760857
"92253, La Quinta, CA",33.6562975,-116.2895173
"21228, Catonsville, MD",39.2724771,-76.745195
"90255, Huntington Park, CA",33.9756107,-118.2234229
"27613, Raleigh, NC",35.9049831,-78.7088295
"60630, Chicago, IL",41.9720786,-87.7517295
"65802, Springfield, MO",37.1953893,-93.3892894
"75149, Mesquite, TX",32.758351,-96.6103778
"94115, San Francisco, CA",37.7877522,-122.4382307
"11434, New York, NY",40.6812166,-73.7772032
"33810, Lakeland, FL",28.0905324,-82.0189155
"55337, Burnsville, MN",44.7758378,-93.2684215
"21207, Lochearn, MD",39.3252511,-76.71633589999999
"17602, Lancaster, PA",40.0033209,-76.23632479999999
"80020, Broomfield, CO",39.93891989999999,-105.0674317
"19464, Pottstown, PA",40.2453741,-75.6496302
"33578, Riverview, FL",27.8873926,-82.33433749999999
"85205, Mesa, AZ",33.4335164,-111.7256936
"80123, Denver, CO",39.6166037,-105.0674317
"49009, Oshtemo, MI",42.2813697,-85.6775237
"90024, Los Angeles, CA",34.0631451,-118.4367551
"78250, San Antonio, TX",29.4956954,-98.6490584
"75061, Irving, TX",32.8237425,-96.9584922
"75025, Plano, TX",33.0869379,-96.76010570000001
"75703, Tyler, TX",32.2556612,-95.3207069
"78258, San Antonio, TX",29.6451457,-98.47327179999999
"98125, Seattle, WA",47.7170204,-122.3009337
"48044, Macomb, MI",42.6547932,-82.9178838
"80504, Longmont, CO",40.1672068,-105.1019275
"33614, Egypt Lake-Leto, FL",28.0169633,-82.495373
"97301, Salem, OR",44.9464822,-123.0018941
"19149, Philadelphia, PA",40.0390934,-75.06403499999999
"33176, Kendall, FL",25.6624457,-80.3547286
"20744, Fort Washington, MD",38.7073379,-77.0230313
"43235, Columbus, OH",40.1296424,-83.025396
"89122, Las Vegas, NV",36.1067341,-115.0406679
"93312, Bakersfield, CA",35.3734151,-119.1274334
"92618, Irvine, CA",33.665242,-117.7490656
"87112, Albuquerque, NM",35.1030501,-106.5171626
"78216, San Antonio, TX",29.5516834,-98.49522280000001
"20774, Kettering, MD",38.8845568,-76.8146928
"98661, Vancouver, WA",45.6405414,-122.6204002
"23188, Williamsburg, VA",37.2757305,-76.7098049
"73072, Norman, OK",35.2340635,-97.5138947
"96789, Mililani, HI",21.4513314,-158.0152807
"29501, Florence, SC",34.1980902,-79.8520818
"62704, Springfield, IL",39.7853965,-89.6722171
"80012, Aurora, CO",39.7020217,-104.8396248
"70816, Baton Rouge, LA",30.4259968,-91.02510679999999
"75231, Dallas, TX",32.8798071,-96.75475220000001
"19147, Philadelphia, PA",39.9350642,-75.1516194
"78681, Round Rock, TX",30.5184228,-97.70908539999999
"15642, North Huntingdon, PA",40.3301883,-79.7307014
"70001, Metairie, LA",29.9797336,-90.16354419999999
"91786, Upland, CA",34.1036996,-117.6610854
"29720, Lancaster, SC",34.7204257,-80.7709014
"80918, Colorado Springs, CO",38.9043608,-104.7637619
"78640, Kyle, TX",29.9966514,-97.8068851
"60643, Chicago, IL",41.6773775,-87.6538017
"78504, McAllen, TX",26.2892001,-98.2322355
"47374, Richmond, IN",39.8282551,-84.8984775
"97501, Medford, OR",42.2855796,-122.886705
"92234, Cathedral City, CA",33.82632359999999,-116.4547962
"46360, Michigan City, IN",41.70753939999999,-86.8950297
"72701, Fayetteville, AR",35.9980929,-94.08999109999999
"34221, Palmetto, FL",27.5214269,-82.57231929999999
"32935, Melbourne, FL",28.1543081,-80.6437906
"33020, Hollywood, FL",26.0181766,-80.1596041
"29607, Greenville, SC",34.8083898,-82.33433749999999
"90028, Los Angeles, CA",34.1012181,-118.325739
"29414, Charleston, SC",32.8312481,-80.08701549999999
"12065, Clifton Park, NY",42.837849,-73.77132
"85326, Buckeye, AZ",33.3072204,-112.5721881
"14120, North Tonawanda, NY",43.038668,-78.8642033
"63031, Florissant, MO",38.8095735,-90.3465971
"11224, New York, NY",40.5749261,-73.9859414
"97223, Tigard, OR",45.4395124,-122.7711943
"40214, Louisville, KY",38.1459555,-85.77691639999999
"23434, Suffolk, VA",36.6644676,-76.5950555
"89115, Las Vegas, NV",36.3193563,-115.0228736
"76133, Fort Worth, TX",32.6477436,-97.38407289999999
"77081, Houston, TX",29.7161912,-95.4830243
"75068, Little Elm, TX",33.1658698,-96.95312249999999
"77063, Houston, TX",29.73754379999999,-95.5249863
"75080, Richardson, TX",32.97602940000001,-96.7386946
"67212, Wichita, KS",37.7071863,-97.4327273
"89502, Reno, NV",39.4835647,-119.7310213
"92057, Oceanside, CA",33.260081,-117.2793685
"27526, Fuquay Varina, NC",35.5843235,-78.80001279999999
"77386, Spring, TX",30.1185635,-95.37301760000001
"22554, Stafford, VA",38.4220687,-77.4083086
"15237, Ross, PA",40.5610745,-80.0394123
"85248, Chandler, AZ",33.2344417,-111.86339
"33322, Sunrise, FL",26.1544576,-80.2711588
"73120, Oklahoma City, OK",35.578861,-97.5788975
"33178, Doral, FL",25.8216636,-80.3341312
"7601, Hackensack, NJ",40.8876273,-74.04763779999999
"85338, Goodyear, AZ",33.3602393,-112.4053046
"92708, Fountain Valley, CA",33.7168761,-117.9600466
"30016, Covington, GA",33.5967815,-83.8601827
"10306, New York, NY",40.5729336,-74.12986839999999
"43615, Toledo, OH",41.6560291,-83.666758
"33125, Miami, FL",25.7862401,-80.2349196
"47401, Bloomington, IN",39.169574,-86.5385549
"7470, Wayne, NJ",40.9411487,-74.2531465
"33062, Pompano Beach, FL",26.2474478,-80.09260139999999
"57701, Rapid City, SD",44.14003109999999,-103.1971067
"38111, Memphis, TN",35.0938483,-89.9346659
"27360, Thomasville, NC",35.8826369,-80.0819879
"77042, Houston, TX",29.7246822,-95.5564777
"85224, Chandler, AZ",33.3260297,-111.8747445
"43207, Columbus, OH",39.9119721,-82.9716617
"70506, Lafayette, LA",30.2002897,-92.0763253
"8054, Mt Laurel, NJ",39.9358189,-74.90918529999999
"95020, Gilroy, CA",37.0029828,-121.5566373
"38017, Collierville, TN",35.0603204,-89.64399240000002
"11691, New York, NY",40.6024346,-73.762495
"76549, Killeen, TX",31.0036795,-97.8068851
"54956, Neenah, WI",44.1858193,-88.462609
"85375, Sun City West, AZ",33.6619819,-112.3412726
"34655, New Port Richey, FL",28.2441768,-82.7192671
"55044, Lakeville, MN",44.6380235,-93.22776379999999
"33615, Town 'n' Country, FL",27.9947914,-82.5943072
"7083, Union, NJ",40.6843079,-74.2531465
"19335, East Brandywine, PA",40.0397498,-75.754592
"85122, Casa Grande, AZ",32.9368054,-111.7495419
"45014, Fairfield, OH",39.3282373,-84.5536678
"93277, Visalia, CA",36.3033521,-119.3831026
"93063, Simi Valley, CA",34.275113,-118.7095413
"27615, Raleigh, NC",35.8861371,-78.64554749999999
"65804, Springfield, MO",37.1565149,-93.2483058
"37918, Knoxville, TN",36.0539129,-83.9003022
"55106, Saint Paul, MN",44.9687549,-93.0485951
"78247, San Antonio, TX",29.5857075,-98.4129396
"13760, Union, NY",42.1387904,-76.07399989999999
"96744, Kaneohe, HI",21.4028819,-157.799637
"75071, McKinney, TX",33.2505263,-96.6317461
"44102, Cleveland, OH",41.4789363,-81.7404134
"37660, Kingsport, TN",36.5298904,-82.5834947
"98003, Federal Way, WA",47.3165043,-122.3223975
"1844, Methuen, MA",42.7276358,-71.20426189999999
"27215, Burlington, NC",36.0955555,-79.4379412
"91402, Los Angeles, CA",34.2252697,-118.442596
"60411, Chicago Heights, IL",41.5154536,-87.55936129999999
"55303, Ramsey, MN",45.2611,-93.45
"48307, Rochester Hills, MI",42.66789139999999,-83.13273319999999
"35405, Tuscaloosa, AL",33.1225986,-87.55936129999999
"80014, Aurora, CO",39.6631609,-104.8279512
"85283, Tempe, AZ",33.3684114,-111.9343636
"34741, Kissimmee, FL",28.3040861,-81.422404
"17701, Williamsport, PA",41.2411897,-77.00107860000001
"27612, Raleigh, NC",35.8533273,-78.6965972
"92037, San Diego, CA",32.8283259,-117.255854
"87105, South Valley, NM",35.0100487,-106.6780809
"35215, Birmingham, AL",33.6523096,-86.7114545
"77546, Friendswood, TX",29.5370503,-95.1953554
"94117, San Francisco, CA",37.7717185,-122.4438929
"92103, San Diego, CA",32.749789,-117.1676501
"6492, Wallingford, CT",41.4566578,-72.82411259999999
"43232, Columbus, OH",39.9162835,-82.8748301
"14150, Tonawanda, NY",43.0203347,-78.880315
"93720, Fresno, CA",36.8638688,-119.7715563
"76010, Arlington, TX",32.7272701,-97.0767365
"54115, De Pere, WI",44.4488805,-88.0603806
"73071, Norman, OK",35.2407401,-97.4056928
"91367, Los Angeles, CA",34.1785255,-118.597305
"85207, Mesa, AZ",33.459458,-111.642224
"33033, Homestead, FL",25.4921341,-80.43674209999999
"92507, Riverside, CA",33.9734553,-117.3263893
"33617, Temple Terrace, FL",28.0362327,-82.39399999999999
"27604, Raleigh, NC",35.8150476,-78.57744079999999
"96003, Redding, CA",40.5754129,-122.3836121
"40324, Georgetown, KY",38.2097967,-84.55883109999999
"29910, Bluffton, SC",32.2299039,-80.8765205
"55104, Saint Paul, MN",44.9516643,-93.16290629999999
"23608, Newport News, VA",37.1541965,-76.5372625
"8053, Evesham, NJ",39.875125,-74.9220485
"27513, Cary, NC",35.8129046,-78.78162189999999
"28262, Charlotte, NC",35.3301529,-80.7325287
"79928, Horizon City, TX",31.69261209999999,-106.2074793
"91977, Spring Valley, CA",32.7215291,-116.9970153
"95831, Sacramento, CA",38.4901072,-121.5255815
"32837, Orlando, FL",28.3675319,-81.4169093
"12866, Saratoga Springs, NY",43.08337059999999,-73.7849756
"18103, Allentown, PA",40.5719198,-75.4927278
"28403, Wilmington, NC",34.2253022,-77.8710285
"77407, Richmond, TX",29.67734269999999,-95.71945219999999
"80526, Fort Collins, CO",40.5293254,-105.1375908
"16001, Butler, PA",40.8611755,-79.89533279999999
"28806, Asheville, NC",35.5692059,-82.6159271
"28173, Waxhaw, NC",34.9245935,-80.7434019
"75074, Plano, TX",33.0243206,-96.6745042
"32164, Palm Coast, FL",29.5100354,-81.2188355
"87507, Santa Fe, NM",35.6204185,-106.1345705
"14075, Hamburg, NY",42.7158927,-78.8294768
"74055, Owasso, OK",36.2726958,-95.8353837
"75219, Dallas, TX",32.8122051,-96.81098519999999
"55113, Roseville, MN",45.0060767,-93.15661070000002
"93436, Lompoc, CA",34.6391501,-120.4579409
"10469, New York, NY",40.8690303,-73.8477874
"19103, Philadelphia, PA",39.9531865,-75.1749671
"28110, Monroe, NC",35.0849752,-80.5216184
"80229, Thornton, CO",39.8580556,-104.9564084
"64118, Gladstone, MO",39.220735,-94.5727598
"77072, Houston, TX",29.7002646,-95.587986
"90049, Los Angeles, CA",34.0963058,-118.4980744
"92223, Beaumont, CA",33.9334088,-116.9734685
"7024, Fort Lee, NJ",40.8562383,-73.96537150000002
"60804, Cicero, IL",41.8483683,-87.7664934
"97330, Corvallis, OR",44.5646356,-123.2619607
"91406, Los Angeles, CA",34.1985119,-118.4980744
"94121, San Francisco, CA",37.7813454,-122.497668
"53215, Milwaukee, WI",42.991356,-87.94328370000001
"95207, Stockton, CA",37.9983748,-121.3198491
"95616, Davis, CA",38.5449065,-121.7405167
"20171, Herndon, VA",38.9695545,-77.3860976
"92346, Highland, CA",34.1286356,-117.2089374
"42301, Owensboro, KY",37.767366,-87.11287209999999
"44691, Wooster, OH",40.798237,-81.9399145
"91706, Baldwin Park, CA",34.0812006,-117.9834738
"10312, New York, NY",40.555548,-74.1827119
"48183, Trenton, MI",42.1352293,-83.2291862
"92801, Anaheim, CA",33.8469812,-117.9541894
"98109, Seattle, WA",47.6288591,-122.3456919
"29651, Greer, SC",34.8542647,-82.1931149
"90277, Redondo Beach, CA",33.8322129,-118.3870991
"29526, Conway, SC",33.8360034,-79.0478143
"26554, Fairmont, WV",39.4850848,-80.1425781
"91766, Pomona, CA",34.0397162,-117.7549295
"27107, Winston-Salem, NC",36.0104644,-80.1651854
"32216, Jacksonville, FL",30.2906907,-81.57061089999999
"91744, La Puente, CA",34.0274622,-117.9307584
"43016, Dublin, OH",40.0761455,-83.15417959999999
"24502, Lynchburg, VA",37.3579781,-79.1760161
"43224, Columbus, OH",40.0441439,-82.9609096
"92260, Palm Desert, CA",33.6917281,-116.4075854
"46226, Indianapolis, IN",39.8403018,-86.0458412
"76542, Killeen, TX",31.0089127,-97.7199454
"33442, Deerfield Beach, FL",26.3042864,-80.15402259999999
"92404, San Bernardino, CA",34.1585191,-117.2554498
"98391, Bonney Lake, WA",47.1770777,-122.1868601
"32725, Deltona, FL",28.8887495,-81.2408689
"55112, New Brighton, MN",45.0655212,-93.2018908
"37087, Lebanon, TN",36.27037990000001,-86.2767995
"52001, Dubuque, IA",42.5292381,-90.6962853
"90020, Los Angeles, CA",34.0655627,-118.3096648
"78233, San Antonio, TX",29.560052,-98.3636131
"98270, Marysville, WA",48.0563616,-122.1492224
"8540, Princeton, NJ",40.3503931,-74.6571416
"26505, Morgantown, WV",39.6527963,-79.9472502
"33415, Greenacres, FL",26.6530817,-80.1316927
"33180, Aventura, FL",25.9564812,-80.1392121
"92780, Tustin, CA",33.7372177,-117.8135579
"28117, Mooresville, NC",35.5910505,-80.8765205
"87123, Albuquerque, NM",35.0498998,-106.4759262
"75023, Plano, TX",33.0603809,-96.73334299999999
"85711, Tucson, AZ",32.2107257,-110.8850949
"11706, Islip, NY",40.7360384,-73.2411506
"48170, Plymouth, MI",42.3714253,-83.4702132
"97202, Portland, OR",45.4807521,-122.6427372
"29073, Lexington, SC",33.9815369,-81.2362107
"85016, Phoenix, AZ",33.5106684,-112.029752
"37221, Nashville, TN",36.07273259999999,-86.96240859999999
"15108, Moon, PA",40.51697670000001,-80.22134770000001
"21229, Baltimore, MD",39.2817753,-76.69324379999999
"60435, Joliet, IL",41.5359304,-88.1193763
"87110, Albuquerque, NM",35.1009909,-106.5701927
"80537, Loveland, CO",40.372134,-105.1960795
"1970, Salem, MA",42.5197473,-70.8954626
"52404, Cedar Rapids, IA",41.9270157,-91.69550919999999
"11758, Massapequa, NY",40.6806563,-73.4742914
"19403, West Norriton, PA",40.132609,-75.37831849999999
"60632, Chicago, IL",41.8074687,-87.70740889999999
"48111, Van Buren, MI",42.1894357,-83.4856913
"75024, Plano, TX",33.0787152,-96.8083063
"54703, Eau Claire, WI",44.8594192,-91.50150090000001
"21044, Columbia, MD",39.206658,-76.8836261
"30064, Marietta, GA",33.9346756,-84.59557319999999
"75227, Dallas, TX",32.7762864,-96.6958939
"95828, Florin, CA",38.4929881,-121.3884671
"47201, Columbus, IN",39.2014404,-85.9213796
"75063, Irving, TX",32.9117167,-96.9907197
"94611, Oakland, CA",37.8336281,-122.2029832
"98226, Bellingham, WA",48.7519112,-122.4786854
"34744, Kissimmee, FL",28.2923689,-81.32893969999999
"95060, Santa Cruz, CA",36.9741275,-122.028807
"10461, New York, NY",40.8476284,-73.8360251
"87108, Albuquerque, NM",35.0734065,-106.5760857
"77015, Houston, TX",29.7690048,-95.1744903
"91405, Los Angeles, CA",34.2037124,-118.4571974
"44212, Brunswick, OH",41.2415922,-81.8333656
"44870, Sandusky, OH",41.4561754,-82.71168209999999
"54935, Fond du Lac, WI",43.789674,-88.4306955
"29615, Greenville, SC",34.8742328,-82.33433749999999
"77396, Atascocita, TX",29.9503466,-95.2579968
"28412, Wilmington, NC",34.1421988,-77.91674569999999
"85365, Yuma, AZ",32.6926512,-114.6276916
"70115, New Orleans, LA",29.9219677,-90.1073935
"85719, Tucson, AZ",32.2438145,-110.9447027
"95628, Fair Oaks, CA",38.6506766,-121.2569138
"77008, Houston, TX",29.7995924,-95.4201377
"85382, Peoria, AZ",33.6513368,-112.2443628
"8854, Piscataway, NJ",40.5500011,-74.475777
"46350, La Porte, IN",41.611143,-86.7227195
"90813, Long Beach, CA",33.7844997,-118.1971031
"30809, Evans, GA",33.5593454,-82.1604849
"37343, Chattanooga, TN",35.14242,-85.21012689999999
"96822, Honolulu, HI",21.3175493,-157.8152491
"49424, Holland, MI",42.7893867,-86.1089511
"90803, Long Beach, CA",33.7523035,-118.1298234
"75006, Carrollton, TX",32.9678449,-96.8887202
"29412, Charleston, SC",32.708767,-79.95284509999999
"39402, Hattiesburg, MS",31.3299729,-89.41746409999999
"78155, Seguin, TX",29.56892479999999,-97.96458319999999
"2895, Woonsocket, RI",42.00287609999999,-71.51478390000001
"90503, Torrance, CA",33.8409696,-118.3520389
"95610, Citrus Heights, CA",38.6977447,-121.2740813
"30605, Athens, GA",33.9052071,-83.3148018
"16801, State College, PA",40.7933949,-77.8600012
"21221, Essex, MD",39.30927430000001,-76.47496199999999
"98105, Seattle, WA",47.6614244,-122.2683743
"68516, Lincoln, NE",40.7422154,-96.6477771
"40509, Lexington, KY",37.9923606,-84.375233
"92324, Colton, CA",34.0739016,-117.3136547
"11106, New York, NY",40.7595044,-73.9271644
"77040, Houston, TX",29.8760239,-95.5249863
"37920, Knoxville, TN",35.9113041,-83.8685072
"8757, Berkeley, NJ",39.9618663,-74.2583556
"94550, Livermore, CA",37.6818688,-121.7684732
"14450, Perinton, NY",43.0745542,-77.4013403
"85260, Scottsdale, AZ",33.6160293,-111.8926303
"32940, Melbourne, FL",28.1988979,-80.7879407
"93291, Visalia, CA",36.3696012,-119.3947135
"85018, Phoenix, AZ",33.4962205,-111.9641728
"98501, Olympia, WA",46.9770179,-122.858419
"91601, Los Angeles, CA",34.1658804,-118.3637264
"52402, Cedar Rapids, IA",42.0166364,-91.6663523
"70508, Lafayette, LA",30.154741,-92.037116
"77511, Alvin, TX",29.3845708,-95.2475518
"37209, Nashville, TN",36.1484862,-86.9523954
"48843, Howell, MI",42.6072552,-83.9293952
"98118, Seattle, WA",47.5412021,-122.2675625
"32703, Apopka, FL",28.65391649999999,-81.54867279999999
"29687, Taylors, SC",34.9203946,-82.2962268
"32514, Pensacola, FL",30.5327462,-87.2120599
"85044, Phoenix, AZ",33.3211123,-111.9880199
"53703, Madison, WI",43.0833196,-89.3724769
"84043, Lehi, UT",40.3916172,-111.8507662
"60506, Aurora, IL",41.76919840000001,-88.38219889999999
"94577, San Leandro, CA",37.7199247,-122.1689284
"95206, Stockton, CA",37.9009213,-121.422761
"43204, Columbus, OH",39.9647732,-83.0844532
"65201, Columbia, MO",38.951674,-92.33254099999999
"14224, West Seneca, NY",42.8410449,-78.7362845
"61554, Pekin, IL",40.5675388,-89.640658
"21401, Annapolis, MD",38.979434,-76.4919706
"30309, Atlanta, GA",33.7971137,-84.3804888
"8081, Winslow, NJ",39.7236859,-74.9793243
"97006, Beaverton, OR",45.5179745,-122.8541997
"42240, Hopkinsville, KY",36.8655394,-87.48890639999999
"78665, Round Rock, TX",30.5464236,-97.6222665
"49423, Holland, MI",42.7893867,-86.1089511
"32708, Winter Springs, FL",28.6820373,-81.26289609999999
"63033, Florissant, MO",38.7888018,-90.2901815
"80233, Northglenn, CO",39.8998278,-104.9447261
"2703, Attleboro, MA",41.925494,-71.2992993
"94118, San Francisco, CA",37.7822891,-122.463708
"94546, Castro Valley, CA",37.7188649,-122.0780632
"7712, Ocean, NJ",40.2518422,-74.0393392
"92407, San Bernardino, CA",34.216765,-117.3851496
"32746, Lake Mary, FL",28.7588833,-81.3178446
"40216, Louisville, KY",38.1903228,-85.83838569999999
"44111, Cleveland, OH",41.45226,-81.7841703
"7104, Newark, NJ",40.7758541,-74.16509909999999
"85029, Phoenix, AZ",33.5973469,-112.1072528
"30518, Buford, GA",34.1199318,-84.0378894
"62040, Granite City, IL",38.7157973,-90.13077969999999
"70810, Baton Rouge, LA",30.35058129999999,-91.0873551
"60115, Dekalb, IL",41.9295355,-88.74991279999999
"95678, Roseville, CA",38.7637052,-121.2912463
"98204, Paine Field-Lake Stickney, WA",47.9088246,-122.268112
"54220, Manitowoc, WI",44.0886059,-87.657584
"1453, Leominster, MA",42.52334339999999,-71.7385225
"92692, Mission Viejo, CA",33.6147846,-117.637617
"98004, Bellevue, WA",47.6264794,-122.2051487
"23602, Newport News, VA",37.1120848,-76.5372625
"78201, San Antonio, TX",29.46357,-98.5226706
"73034, Edmond, OK",35.7085641,-97.4165053
"98023, Federal Way, WA",47.3055312,-122.3744209
"75062, Irving, TX",32.8449965,-96.9799755
"24018, Roanoke, VA",37.1967674,-80.03113640000001
"99205, Spokane, WA",47.7000703,-117.4516702
"38115, Memphis, TN",35.0497486,-89.8598619
"97007, Beaverton, OR",45.4501529,-122.8849111
"79907, El Paso, TX",31.7094648,-106.3346061
"40517, Lexington, KY",37.9817391,-84.485507
"92026, Escondido, CA",33.2156978,-117.1147095
"14609, Rochester, NY",43.1770344,-77.55047789999999
"98387, Spanaway, WA",47.103988,-122.4345661
"37076, Nashville, TN",36.1387641,-86.59053709999999
"11432, New York, NY",40.7154518,-73.7919103
"36116, Montgomery, AL",32.265915,-86.2260131
"95621, Citrus Heights, CA",38.6940006,-121.3026883
"6460, Milford, CT",41.2220944,-73.0464309
"18104, South Whitehall, PA",40.5977756,-75.5393155
"77089, Houston, TX",29.5824916,-95.2162283
"92129, San Diego, CA",32.9657005,-117.1147095
"37620, Bristol, TN",36.5421738,-82.10606829999999
"45231, Finneytown, OH",39.2177925,-84.5169757
"29576, Murrells Inlet, SC",33.5510021,-79.0414261
"27609, Raleigh, NC",35.8409242,-78.62285039999999
"60014, Crystal Lake, IL",42.23404559999999,-88.3336477
"91762, Ontario, CA",34.0420153,-117.6610854
"33068, North Lauderdale, FL",26.2153627,-80.2209773
"11222, New York, NY",40.7282702,-73.9506774
"98258, Lake Stevens, WA",48.0155451,-122.0635085
"92114, San Diego, CA",32.7040143,-117.0499859
"78028, Kerrville, TX",30.0474332,-99.1403189
"76112, Fort Worth, TX",32.7476771,-97.2113605
"94403, San Mateo, CA",37.5349925,-122.3050823
"60201, Evanston, IL",42.060011,-87.6926257
"78213, San Antonio, TX",29.4981168,-98.5226706
"53202, Milwaukee, WI",43.0439776,-87.8991514
"18702, Wilkes-Barre, PA",41.2459149,-75.88130749999999
"33179, Ives Estates, FL",25.9623144,-80.1767133
"77406, Richmond, TX",29.5821811,-95.76078319999999
"21043, Ellicott City, MD",39.2369558,-76.79135579999999
"8724, Brick, NJ",40.0876046,-74.1122506
"2124, Boston, MA",42.2826027,-71.067605
"7052, West Orange, NJ",40.7882429,-74.2562099
"44118, Cleveland Heights, OH",41.5050985,-81.55415789999999
"44240, Kent, OH",41.1536674,-81.3578859
"77339, Houston, TX",30.0442264,-95.2162283
"28562, New Bern, NC",35.108493,-77.04411429999999
"93906, Salinas, CA",36.7272444,-121.6397184
"33126, Miami, FL",25.778647,-80.2962385
"32835, Orlando, FL",28.5107872,-81.4828198
"83686, Nampa, ID",43.48913719999999,-116.589439
"8816, East Brunswick, NJ",40.4333407,-74.41152459999999
"85041, Phoenix, AZ",33.3885174,-112.1132142
"91702, Azusa, CA",34.1336186,-117.9075627
"91770, Rosemead, CA",34.06173649999999,-118.0830047
"91761, Ontario, CA",34.0348144,-117.5848025
"33919, Fort Myers, FL",26.5545224,-81.89890799999999
"76017, Arlington, TX",32.6614911,-97.1467072
"52302, Marion, IA",42.033279,-91.5968958
"30076, Roswell, GA",34.0567006,-84.3436881
"50613, Cedar Falls, IA",42.5348993,-92.4453161
"85206, Mesa, AZ",33.3951613,-111.7018452
"90047, Los Angeles, CA",33.9519253,-118.3082034
"90018, Los Angeles, CA",34.0309972,-118.319894
"60126, Elmhurst, IL",41.89136999999999,-87.94328370000001
"56560, Moorhead, MN",46.8737648,-96.76780389999999
"75214, Dallas, TX",32.824251,-96.7440467
"96816, Honolulu, HI",21.2868901,-157.7973653
"43551, Perrysburg, OH",41.556996,-83.627157
"90003, Los Angeles, CA",33.9657994,-118.2731269
"23220, Richmond, VA",37.5464259,-77.46446069999999
"63122, Kirkwood, MO",38.5833862,-90.406785
"90630, Cypress, CA",33.816539,-118.0361736
"80011, Aurora, CO",39.7542465,-104.7871004
"30034, Panthersville, GA",33.7073291,-84.27186669999999
"32224, Jacksonville, FL",30.2606613,-81.46085599999999
"93446, Paso Robles, CA",35.6368759,-120.6545022
"60440, Bolingbrook, IL",41.6948876,-88.08030509999999
"75248, Dallas, TX",32.9737114,-96.7815237
"20902, Silver Spring, MD",39.0451663,-77.03917539999999
"28306, Fayetteville, NC",34.9788116,-78.8948741
"34112, Naples, FL",26.1237525,-81.7458845
"23234, Richmond, VA",37.4664427,-77.46283249999999
"76039, Euless, TX",32.8673097,-97.0821162
"91343, Los Angeles, CA",34.2386799,-118.4805569
"92078, San Marcos, CA",33.1158665,-117.185294
"19128, Philadelphia, PA",40.0532987,-75.23040379999999
"90247, Gardena, CA",33.8863314,-118.2935891
"29803, Aiken, SC",33.5604319,-81.7192027
"95403, Santa Rosa, CA",38.4739555,-122.7520139
"55408, Minneapolis, MN",44.9479791,-93.2935778
"91942, La Mesa, CA",32.7749487,-117.0146736
"30097, Duluth, GA",34.0488408,-84.17516479999999
"90045, Los Angeles, CA",33.9516114,-118.3875775
"46220, Indianapolis, IN",39.8686629,-86.12209659999999
"30324, Atlanta, GA",33.81842,-84.3594626
"90016, Los Angeles, CA",34.0255188,-118.3520389
"37115, Nashville, TN",36.2722491,-86.7114545
"98837, Moses Lake, WA",47.1301417,-119.2780771
"47905, Lafayette, IN",40.4177263,-86.8909321
"98277, Oak Harbor, WA",48.28829469999999,-122.6484205
"59101, Billings, MT",45.78277689999999,-108.5045938
"85706, Tucson, AZ",32.1485656,-110.9625854
"84041, Layton, UT",41.0709042,-111.9880199
"15317, North Strabane, PA",40.2251341,-80.15402259999999
"33161, North Miami, FL",25.8900949,-80.1867138
"33904, Cape Coral, FL",26.5804293,-81.9425701
"80631, Greeley, CO",40.43982159999999,-104.6821048
"29407, Charleston, SC",32.8017595,-79.99759159999999
"65109, Jefferson City, MO",38.5686223,-92.2433487
"21502, Cumberland, MD",39.6528654,-78.7625185
"94590, Vallejo, CA",38.1052454,-122.2483726
"19460, Phoenixville, PA",40.1303822,-75.51491279999999
"29210, Columbia, SC",34.0644032,-81.1085744
"44203, Barberton, OH",41.012833,-81.6051221
"63026, Fenton, MO",38.5126456,-90.4429881
"20772, Greater Upper Marlboro, MD",38.7922949,-76.7567368
"63017, Chesterfield, MO",38.6633659,-90.5771493
"90043, Los Angeles, CA",33.9903827,-118.3286614
"33165, University Park, FL",25.7327581,-80.3547286
"80220, Denver, CO",39.7316982,-104.9213643
"29621, Anderson, SC",34.5034394,-82.6501332
"44094, Willoughby, OH",41.6397696,-81.4065011
"90022, East Los Angeles, CA",34.0238187,-118.153228
"91304, Los Angeles, CA",34.2249609,-118.6556478
"55416, Saint Louis Park, MN",44.9465193,-93.3439291
"15068, Lower Burrell, PA",40.5849232,-79.7209802
"94114, San Francisco, CA",37.7561438,-122.4325682
"96818, Honolulu, HI",21.34853,-157.9583246
"95822, Sacramento, CA",38.5128714,-121.4970294
"90037, Los Angeles, CA",34.002058,-118.2818967
"97123, Hillsboro, OR",45.4053517,-122.9907521
"92870, Placentia, CA",33.8710317,-117.8628096
"1752, Marlborough, MA",42.347372,-71.53678599999999
"20008, Washington, DC",38.9451658,-77.0622028
"37604, Johnson City, TN",36.2894696,-82.3560389
"94010, Burlingame, CA",37.5685247,-122.367428
"44720, North Canton, OH",40.875891,-81.4023356
"18974, Warminster, PA",40.2060731,-75.10768000000002
"78840, Del Rio, TX",29.3708857,-100.8958674
"98033, Kirkland, WA",47.6688298,-122.1923875
"77088, Houston, TX",29.8790707,-95.4515725
"80231, Denver, CO",39.66564899999999,-104.8863279
"32780, Titusville, FL",28.6080347,-80.8084112
"33435, Boynton Beach, FL",26.5254562,-80.0590804
"93551, Palmdale, CA",34.594158,-118.1824793
"55125, Woodbury, MN",44.915423,-92.9475662
"95124, San Jose, CA",37.2583724,-121.918866
"11772, Patchogue, NY",40.7659783,-73.01934299999999
"80401, Golden, CO",39.755543,-105.2210997
"18102, Allentown, PA",40.6073818,-75.47816619999999
"7960, Morris, NJ",40.7793504,-74.511172
"20148, Ashburn, VA",38.9867355,-77.5340315
"23669, Hampton, VA",37.0517234,-76.3347838
"32159, Lady Lake, FL",28.9177956,-81.8879884
"48198, Superior, MI",42.2728525,-83.57096399999999
"85209, Mesa, AZ",33.3804214,-111.6362619
"38501, Cookeville, TN",36.2452673,-85.5406209
"37601, Johnson City, TN",36.3412594,-82.32348429999999
"28226, Charlotte, NC",35.1173473,-80.7990185
"20854, Potomac, MD",39.040746,-77.22901929999999
"85234, Gilbert, AZ",33.3650631,-111.7495419
"92211, Palm Desert, CA",33.7637689,-116.3426552
"34203, Bradenton, FL",27.4481958,-82.5131717
"77581, Pearland, TX",29.5800207,-95.27889259999999
"98042, Kent, WA",47.3661299,-122.1123384
"13021, Auburn, NY",42.9317335,-76.5660529
"34667, Hudson, FL",28.3644485,-82.69343429999999
"44109, Cleveland, OH",41.4513221,-81.7021049
"60089, Buffalo Grove, IL",42.1688759,-87.962884
"32257, Jacksonville, FL",30.2018746,-81.614468
"75104, Cedar Hill, TX",32.59423,-96.9423844
"80501, Longmont, CO",40.1733277,-105.1142011
"77469, Richmond, TX",29.5821811,-95.76078319999999
"97756, Redmond, OR",44.2726203,-121.1739212
"48104, Ann Arbor, MI",42.2660881,-83.7146001
"48073, Royal Oak, MI",42.5183235,-83.15953999999999
"92111, San Diego, CA",32.8256427,-117.1558867
"77539, Dickinson, TX",29.4607876,-95.0513172
"13601, Watertown, NY",43.9725849,-75.90974299999999
"42303, Owensboro, KY",37.750555,-87.0424393
"32259, Fruit Cove, FL",30.1110746,-81.641758
"97302, Salem, OR",44.9046074,-123.0826335
"85713, Tucson, AZ",32.191944,-110.9625854
"78229, San Antonio, TX",29.5068008,-98.56660769999999
"44224, Stow, OH",41.1729114,-81.4388858
"80127, Ken Caryl, CO",39.5758213,-105.1122088
"77099, Houston, TX",29.6771668,-95.587986
"27103, Winston-Salem, NC",36.0564654,-80.33245140000001
"95336, Manteca, CA",37.8403398,-121.2053963
"22903, Charlottesville, VA",38.0301826,-78.4769353
"20176, Leesburg, VA",39.1154523,-77.5645323
"46514, Elkhart, IN",41.7204299,-85.9815339
"38128, Memphis, TN",35.2258075,-89.9159785
"96734, Kailua, HI",21.3945828,-157.743368
"80210, Denver, CO",39.6751269,-104.9680914
"92027, Escondido, CA",33.1467885,-117.0087877
"99362, Walla Walla, WA",46.0645809,-118.3430209
"93033, Oxnard, CA",34.1599885,-119.1274334
"77090, Houston, TX",30.0118752,-95.4463322
"30339, Vinings, GA",33.8648262,-84.4643744
"6606, Bridgeport, CT",41.2078356,-73.21165839999999
"60010, Barrington, IL",42.1539141,-88.1361888
"90005, Los Angeles, CA",34.0578814,-118.3096648
"60123, Elgin, IL",42.0361546,-88.314212
"46237, Indianapolis, IN",39.66578690000001,-86.0826098
"48060, Port Huron, MI",42.9751872,-82.4644445
"90278, Redondo Beach, CA",33.865913,-118.3754131
"48911, Lansing, MI",42.6663024,-84.5536678
"92116, San Diego, CA",32.7679176,-117.1235339
"54915, Appleton, WI",44.2455449,-88.3530747
"13440, Rome, NY",43.2212399,-75.45777749999999
"21921, Elkton, MD",39.60677889999999,-75.83327179999999
"83704, Boise, ID",43.63208969999999,-116.2863998
"33175, Tamiami, FL",25.7357116,-80.3992652
"39110, Madison, MS",32.4618086,-90.1153638
"91950, National City, CA",32.6721599,-117.0970596
"92691, Mission Viejo, CA",33.6062809,-117.6728185
"91344, Los Angeles, CA",34.2801972,-118.4980744
"98902, Yakima, WA",46.5926188,-120.5363431
"98801, Wenatchee, WA",47.4234599,-120.3103494
"70737, Gonzales, LA",30.2385294,-90.9200987
"28213, Charlotte, NC",35.2916363,-80.72698539999999
"44134, Parma, OH",41.3916411,-81.7021049
"30506, Gainesville, GA",34.2978794,-83.8240663
"49201, Jackson, MI",42.3151209,-84.375233
"92504, Riverside, CA",33.9012386,-117.3910247
"92392, Victorville, CA",34.4854334,-117.4203974
"1915, Beverly, MA",42.5720581,-70.8476708
"60605, Chicago, IL",41.8703314,-87.62357420000001
"6484, Shelton, CT",41.3164856,-73.0931641
"17055, Upper Allen, PA",40.1732512,-76.9988669
"30350, Sandy Springs, GA",33.9900649,-84.3436881
"46038, Fishers, IN",39.9645049,-86.0223611
"77388, Spring, TX",30.0570946,-95.46729619999999
"92028, Fallbrook, CA",33.3764196,-117.2511466
"34209, Bradenton, FL",27.5073732,-82.63754019999999
"28311, Fayetteville, NC",35.1724135,-78.8722341
"77024, Houston, TX",29.77261379999999,-95.514493
"92886, Yorba Linda, CA",33.9011405,-117.7959713
"76108, Fort Worth, TX",32.7747949,-97.5138947
"89014, Henderson, NV",36.0633189,-115.0525302
"85020, Phoenix, AZ",33.5636878,-112.0595603
"46254, Indianapolis, IN",39.838214,-86.27062819999999
"52722, Bettendorf, IA",41.5703144,-90.45967209999999
"75019, Coppell, TX",32.9618763,-96.99609249999999
"49504, Grand Rapids, MI",42.9880623,-85.7153754
"75126, Forney, TX",32.7481845,-96.4719312
"94605, Oakland, CA",37.7554905,-122.1462193
"1801, Woburn, MA",42.4792618,-71.1522765
"45211, Cincinnati, OH",39.1654029,-84.6165146
"32566, Navarre, FL",30.46777519999999,-86.8822445
"94539, Fremont, CA",37.5148444,-121.9131761
"92545, Hemet, CA",33.736074,-117.0205594
"15235, Penn Hills, PA",40.4661428,-79.8260578
"46060, Noblesville, IN",40.0542448,-85.95089229999999
"80211, Denver, CO",39.7698122,-105.0148322
"32073, Orange Park, FL",30.1660736,-81.706484
"40299, Louisville, KY",38.1673072,-85.49941919999999
"78109, Converse, TX",29.5062414,-98.30683979999999
"21220, Middle River, MD",39.3514892,-76.37530459999999
"60505, Aurora, IL",41.75798959999999,-88.29476749999999
"85208, Mesa, AZ",33.3996663,-111.6332808
"70003, Metairie, LA",30.0085623,-90.2150873
"94103, San Francisco, CA",37.7726402,-122.4099154
"53207, Milwaukee, WI",42.97120710000001,-87.9040571
"90057, Los Angeles, CA",34.06170609999999,-118.2789735
"33177, South Miami Heights, FL",25.597606,-80.3806096
"95404, Santa Rosa, CA",38.5386881,-122.695547
"28105, Matthews, NC",35.1105564,-80.7103532
"97030, Gresham, OR",45.5140983,-122.4228701
"22202, Arlington, VA",38.8501078,-77.03917539999999
"28376, Raeford, NC",34.9809995,-79.2241997
"94066, San Bruno, CA",37.6210696,-122.4297369
"30736, Ringgold, GA",34.9159099,-85.1091173
"83854, Post Falls, ID",47.7179578,-116.9515856
"85202, Mesa, AZ",33.379424,-111.8747445
"21702, Frederick, MD",39.4839351,-77.4472495
"60462, Orland Park, IL",41.6305694,-87.82550069999999
"92530, Lake Elsinore, CA",33.6392361,-117.3851496
"8817, Edison, NJ",40.5054763,-74.3939339
"47909, Lafayette, IN",40.4177263,-86.8909321
"60062, Northbrook, IL",42.1275267,-87.82895479999999
"77064, Jersey Village, TX",29.9161683,-95.5302337
"46140, Greenfield, IN",39.785043,-85.7694226
"53211, Milwaukee, WI",43.0824328,-87.87952299999999
"32907, Palm Bay, FL",28.0181548,-80.68817179999999
"84119, West Valley City, UT",40.7142657,-111.9403254
"41017, Edgewood, KY",39.0186719,-84.58188799999999
"34609, Spring Hill, FL",28.4784286,-82.50775929999999
"33844, Haines City, FL",28.1141841,-81.61785359999999
"79705, Midland, TX",32.0688848,-102.0946818
"92009, Carlsbad, CA",33.095442,-117.2499749
"89131, Las Vegas, NV",36.3656399,-115.2244853
"34786, Windermere, FL",28.4955593,-81.53479519999999
"77004, Houston, TX",29.7209034,-95.36778439999999
"34746, Kissimmee, FL",28.2529101,-81.4388858
"40356, Nicholasville, KY",37.8794475,-84.573442
"78227, San Antonio, TX",29.41040379999999,-98.63256109999999
"53214, West Allis, WI",43.0169374,-88.01674059999999
"59718, Bozeman, MT",45.67931189999999,-111.037259
"46383, Valparaiso, IN",41.4613036,-86.96240859999999
"90703, Cerritos, CA",33.8724552,-118.0595907
"54701, Eau Claire, WI",44.7470586,-91.50150090000001
"21236, Nottingham, MD",39.3700676,-76.4545254
"97219, Portland, OR",45.4618086,-122.7181902
"33446, Delray Beach, FL",26.4460317,-80.1763467
"24401, Staunton, VA",38.1494226,-79.0737047
"85712, Tucson, AZ",32.2540946,-110.8850949
"23228, Laurel, VA",37.6164453,-77.4816693
"72076, Jacksonville, AR",34.8674331,-92.1270445
"94566, Pleasanton, CA",37.6436199,-121.8676464
"55117, Saint Paul, MN",44.9908014,-93.09620989999999
"97701, Bend, OR",44.0581728,-121.3153096
"91745, Hacienda Heights, CA",33.9990858,-117.9834738
"20003, Washington, DC",38.8831372,-76.9902276
"21230, Baltimore, MD",39.2635174,-76.6239423
"85021, Phoenix, AZ",33.563442,-112.0893682
"39564, Ocean Springs, MS",30.4113097,-88.8278057
"1902, Lynn, MA",42.4719938,-70.9398192
"19808, Wilmington, DE",39.7329896,-75.6789905
"60645, Chicago, IL",42.0105286,-87.6926257
"78207, San Antonio, TX",29.4174949,-98.5226706
"89509, Reno, NV",39.4953787,-119.8236554
"60067, Palatine, IL",42.1112958,-88.0607565
"17543, Warwick, PA",40.1623168,-76.30690129999999
"14701, Jamestown, NY",42.0970023,-79.23532589999999
"94928, Rohnert Park, CA",38.3437823,-122.7011951
"33461, Palm Springs, FL",26.6211772,-80.09260139999999
"20747, District Heights, MD",38.8576128,-76.8894171
"34207, Bradenton, FL",27.4399922,-82.57808779999999
"94610, Oakland, CA",37.8104485,-122.2398636
"93117, Goleta, CA",34.4358294,-119.8276389
"30328, Sandy Springs, GA",33.9253024,-84.38574419999999
"11561, Long Beach, NY",40.5886507,-73.6668807
"92688, Rancho Santa Margarita, CA",33.63736,-117.6082774
"95376, Tracy, CA",37.7345254,-121.43419
"27516, Chapel Hill, NC",35.9131996,-79.0558445
"90660, Pico Rivera, CA",33.9870228,-118.0947106
"76502, Temple, TX",31.1179055,-97.4165053
"35401, Tuscaloosa, AL",33.1690726,-87.6383797
"93010, Camarillo, CA",34.2330908,-119.0809012
"21804, Salisbury, MD",38.3177376,-75.55096019999999
"34231, Sarasota, FL",27.2612782,-82.5131717
"94601, Oakland, CA",37.7729273,-122.2143323
"2740, New Bedford, MA",41.6381659,-70.93684689999999
"32712, Apopka, FL",28.7546454,-81.49379929999999
"8234, Egg Harbor, NJ",39.34804219999999,-74.66346399999999
"94107, San Francisco, CA",37.7618242,-122.3985871
"61820, Champaign, IL",40.1166102,-88.2412504
"18042, Easton, PA",40.6551234,-75.2128996
"98102, Seattle, WA",47.6338217,-122.3215448
"77901, Victoria, TX",28.80663839999999,-96.99609249999999
"24153, Salem, VA",37.2934681,-80.05476259999999
"60193, Schaumburg, IL",42.0130165,-88.099845
"92672, San Clemente, CA",33.4154744,-117.5848025
"32034, Fernandina Beach, FL",30.6696818,-81.46259189999999
"46901, Kokomo, IN",40.486427,-86.13360329999999
"46410, Merrillville, IN",41.47019890000001,-87.32149079999999
"43201, Columbus, OH",39.9929821,-83.00122100000002
"77080, Houston, TX",29.8183406,-95.5249863
"53590, Sun Prairie, WI",43.1836046,-89.2137254
"84790, Saint George, UT",37.0441957,-113.5490415
"60651, Chicago, IL",41.9024826,-87.7418842
"33134, Coral Gables, FL",25.7564662,-80.2711588
"7726, Manalapan, NJ",40.3025315,-74.3038049
"33445, Delray Beach, FL",26.4647478,-80.109357
"33196, The Hammocks, FL",25.6697668,-80.4493073
"21701, Frederick, MD",39.4241558,-77.3668965
"28212, Charlotte, NC",35.195314,-80.7491563
"32404, Panama City, FL",30.1973686,-85.49941919999999
"30519, Buford, GA",34.0820025,-83.94266979999999
"49503, Grand Rapids, MI",42.9616689,-85.6588999
"95037, Morgan Hill, CA",37.1305012,-121.6543901
"70769, Prairieville, LA",30.3058611,-90.9723583
"92064, Poway, CA",32.9799762,-117.0087877
"53221, Milwaukee, WI",42.9574195,-87.94818459999999
"33917, North Fort Myers, FL",26.7270316,-81.84429340000001
"2127, Boston, MA",42.3364553,-71.0349193
"78414, Corpus Christi, TX",27.6474296,-97.3624598
"12603, Poughkeepsie, NY",41.7055897,-73.9283885
"30039, Snellville, GA",33.7972391,-84.0273168
"40291, Louisville, KY",38.11731049999999,-85.57150150000001
"92833, Fullerton, CA",33.8749591,-117.9659037
"27030, Mount Airy, NC",36.4999641,-80.6053793
"95825, Arden-Arcade, CA",38.5890819,-121.4084731
"91765, Diamond Bar, CA",33.9945546,-117.8135579
"64055, Independence, MO",39.0608919,-94.4079213
"62702, Springfield, IL",39.82640809999999,-89.6157473
"85716, Tucson, AZ",32.2370907,-110.9208593
"31909, Columbus, GA",32.5371089,-84.9297206
"48188, Canton, MI",42.3047219,-83.4819418
"19805, Wilmington, DE",39.7472496,-75.5917092
"60188, Carol Stream, IL",41.9194214,-88.13401909999999
"27909, Elizabeth City, NC",36.2946008,-76.2510461
"32955, Rockledge, FL",28.3164498,-80.72698539999999
"33410, Palm Beach Gardens, FL",26.8598894,-80.08701549999999
"19701, Bear, DE",39.6292788,-75.6582628
"33417, Century Village, FL",26.7139537,-80.1289324
"98092, Auburn, WA",47.29401439999999,-122.134133
"72756, Rogers, AR",36.3335129,-94.12569529999999
"49441, Norton Shores, MI",43.21238779999999,-86.317392
"79762, Odessa, TX",31.9626279,-102.3807553
"93311, Bakersfield, CA",35.1268513,-119.1855785
"85249, Chandler, AZ",33.2236687,-111.8210866
"55406, Minneapolis, MN",44.9406559,-93.22317269999999
"55304, Andover, MN",45.2332984,-93.29134049999999
"78412, Corpus Christi, TX",27.700785,-97.3462545
"61701, Bloomington, IL",40.477779,-88.9892448
"33928, Estero, FL",26.438136,-81.8067523
"93711, Fresno, CA",36.8381393,-119.829443
"46902, Kokomo, IN",40.4370815,-86.1039189
"21093, Lutherville Timonium, MD",39.4354087,-76.6123884
"1420, Fitchburg, MA",42.5834228,-71.8022955
"92544, Hemet, CA",33.7475203,-116.9719684
"18017, Bethlehem, PA",40.659437,-75.3995089
"17050, Hampden, PA",40.2475923,-77.03341790000002
"40219, Louisville, KY",38.1422302,-85.6743082
"94521, Concord, CA",37.9538109,-121.9643745
"43017, Dublin, OH",40.115674,-83.13273319999999
"84770, Saint George, UT",37.19633719999999,-113.5966577
"98058, Renton, WA",47.454,-122.1101712
"11435, New York, NY",40.7031635,-73.8095574
"19401, Norristown, PA",40.12707229999999,-75.3353875
"33484, Delray Beach, FL",26.4608477,-80.13727569999999
"79707, Midland, TX",32.0555791,-102.2319048
"35216, Vestavia Hills, AL",33.4306545,-86.7919009
"60477, Tinley Park, IL",41.5699614,-87.78617109999999
"44122, Shaker Heights, OH",41.4766201,-81.50477719999999
"30813, Grovetown, GA",33.4504157,-82.1981764
"32526, Pensacola, FL",30.5251284,-87.4009165
"15221, Wilkinsburg, PA",40.4417355,-79.8819942
"27292, Lexington, NC",35.8240265,-80.2533838
"30680, Winder, GA",33.9926097,-83.7201709
"77055, Houston, TX",29.7970042,-95.4830243
"60025, Glenview, IL",42.0723953,-87.8205864
"1085, Westfield, MA",42.1250929,-72.749538
"55379, Shakopee, MN",44.74026749999999,-93.5205641
"28054, Gastonia, NC",35.2528422,-81.1526976
"32207, Jacksonville, FL",30.2949194,-81.63638689999999
"63368, O Fallon, MO",38.7450528,-90.724773
"92040, Lakeside, CA",32.8572718,-116.9222488
"95762, El Dorado Hills, CA",38.6575905,-121.0564425
"84074, Tooele, UT",40.53077760000001,-112.29828
"2149, Everett, MA",42.40843,-71.0536625
"7036, Linden, NJ",40.6216016,-74.22967129999999
"97303, Keizer, OR",44.9901194,-123.0262077
"55110, White Bear Lake, MN",45.0911599,-93.01124569999999
"27520, Clayton, NC",35.5981967,-78.4524591
"53051, Menomonee Falls, WI",43.1397761,-88.1096118
"90275, Rancho Palos Verdes, CA",33.7456493,-118.3637264
"27127, Winston-Salem, NC",36.0097372,-80.2878794
"28304, Fayetteville, NC",35.0285822,-78.9627624
"78232, San Antonio, TX",29.5930195,-98.478759
"20748, Temple Hills, MD",38.8140024,-76.9455296
"45342, Miamisburg, OH",39.6128751,-84.2489525
"85027, Phoenix, AZ",33.6782379,-112.1012912
"48910, Lansing, MI",42.7043124,-84.5327038
"46368, Portage, IN",41.596455,-87.1722037
"95136, San Jose, CA",37.2692142,-121.8505679
"72703, Fayetteville, AR",36.1192532,-94.0388918
"11550, Hempstead, NY",40.6986257,-73.6241855
"6360, Norwich, CT",41.5532772,-72.0823688
"97477, Springfield, OR",44.059912,-123.0179348
"84121, Cottonwood Heights, UT",40.6183158,-111.8162931
"10977, Ramapo, NY",41.1139452,-74.04763779999999
"32507, Pensacola, FL",30.3291747,-87.39099569999999
"85635, Sierra Vista, AZ",31.58887099999999,-110.2117373
"89436, Sparks, NV",39.603484,-119.7078532
"48146, Lincoln Park, MI",42.2401741,-83.1756188
"32714, Altamonte Springs, FL",28.6626293,-81.4114142
"32304, Tallahassee, FL",30.4649282,-84.38574419999999
"91605, Los Angeles, CA",34.208195,-118.3987842
"92054, Oceanside, CA",33.1924489,-117.3675233
"30126, Mableton, GA",33.8215697,-84.5536678
"78852, Eagle Pass, TX",28.7091433,-100.4995214
"36608, Mobile, AL",30.6784935,-88.3433623
"82001, Cheyenne, WY",41.1400096,-104.8201078
"48430, Fenton, MI",42.7978061,-83.7049498
"93304, Bakersfield, CA",35.344108,-119.0285355
"75165, Waxahachie, TX",32.3782774,-96.7708138
"30228, Hampton, GA",33.3851098,-84.2829063
"78574, Mission, TX",26.3395537,-98.37457169999999
"32824, Orlando, FL",28.3756472,-81.36194019999999
"85051, Phoenix, AZ",33.5651587,-112.1370601
"27893, Wilson, NC",35.6733387,-77.9053182
"60120, Elgin, IL",42.03528559999999,-88.25585249999999
"95826, Rosemont, CA",38.5499634,-121.3884671
"76522, Copperas Cove, TX",31.124062,-97.90307849999999
"80909, Colorado Springs, CO",38.8560908,-104.7812654
"92660, Newport Beach, CA",33.6301328,-117.8721676
"87031, Los Lunas, NM",34.806166,-106.7333599
"77498, Sugar Land, TX",29.6338457,-95.65631189999999
"33624, Greater Carrollwood, FL",28.0899262,-82.5239953
"92127, San Diego, CA",33.0227476,-117.1382404
"2472, Watertown, MA",42.3653524,-71.1843543
"75050, Grand Prairie, TX",32.7811446,-97.0175879
"22901, Charlottesville, VA",38.0301826,-78.4769353
"79925, El Paso, TX",31.79505109999999,-106.3581527
"95667, Placerville, CA",38.7296252,-120.798546
"17042, Lebanon, PA",40.3392151,-76.4262102
"90804, Long Beach, CA",33.7806646,-118.1503026
"38116, Memphis, TN",35.0278019,-90.0093266
"85295, Gilbert, AZ",33.3073768,-111.7435799
"60707, Elmwood Park, IL",41.9211423,-87.8092266
"27295, Lexington, NC",35.8240265,-80.2533838
"94025, Menlo Park, CA",37.4484914,-122.1802812
"80906, Colorado Springs, CO",38.7665005,-104.8804893
"90745, Carson, CA",33.8232001,-118.2585096
"39047, Brandon, MS",32.2788733,-90.001384
"32818, Pine Hills, FL",28.5802998,-81.4828198
"83501, Lewiston, ID",46.4040971,-117.0019991
"55119, Saint Paul, MN",44.9325287,-93.0075642
"28411, Wilmington, NC",34.3134705,-77.76809519999999
"32738, Deltona, FL",28.9075315,-81.1747498
"33771, Largo, FL",27.9046811,-82.7616822
"75013, Allen, TX",33.1128019,-96.6958939
"99504, Anchorage, AK",61.20419150000001,-149.7378903
"34119, Naples, FL",26.2632309,-81.7239979
"98503, Lacey, WA",47.01809919999999,-122.7982856
"95127, San Jose, CA",37.373498,-121.7594384
"85015, Phoenix, AZ",33.5079722,-112.1012912
"95821, Arden-Arcade, CA",38.6258567,-121.3884671
"38125, Memphis, TN",35.0276125,-89.78491269999999
"76021, Bedford, TX",32.8477269,-97.1305536
"84010, Bountiful, UT",40.8893895,-111.880771
"85730, Tucson, AZ",32.1894757,-110.7241664
"85745, Tucson, AZ",32.2708701,-111.0698858
"43213, Whitehall, OH",39.9721714,-82.8694464
"93611, Clovis, CA",36.8303133,-119.6788877
"60540, Naperville, IL",41.7606321,-88.1437782
"98223, Arlington, WA",48.1987118,-122.1251418
"95240, Lodi, CA",38.1341477,-121.2722194
"2130, Boston, MA",42.3555076,-71.0565364
"78744, Austin, TX",30.196311,-97.730807
"38134, Memphis, TN",35.1927931,-89.8692203
"48047, Chesterfield, MI",42.664829,-82.76707449999999
"8861, Perth Amboy, NJ",40.5090949,-74.27661859999999
"14624, Chili, NY",43.1206737,-77.7337628
"21045, Columbia, MD",39.201384,-76.83749949999999
"70433, Covington, LA",30.4754702,-90.1009108
"73112, Oklahoma City, OK",35.5135639,-97.5788975
"79423, Lubbock, TX",33.4258874,-101.866362
"80022, Commerce City, CO",39.866593,-104.7754307
"94606, Oakland, CA",37.7944092,-122.2455364
"95476, Sonoma, CA",38.291859,-122.4580356
"94901, San Rafael, CA",37.9650627,-122.503327
"85296, Gilbert, AZ",33.3345698,-111.7383162
"92506, Riverside, CA",33.9415653,-117.3733989
"60563, Naperville, IL",41.7962928,-88.19741479999999
"22801, Harrisonburg, VA",38.4049904,-78.8722341
"36301, Dothan, AL",31.1348407,-85.39627689999999
"28115, Mooresville, NC",35.584285,-80.7879407
"38127, Memphis, TN",35.2368232,-90.0186555
"90815, Long Beach, CA",33.7963296,-118.1181199
"29577, Myrtle Beach, SC",33.7070405,-78.8948741
"11743, Huntington, NY",40.8786991,-73.4062342
"55423, Richfield, MN",44.8832982,-93.28300209999999
"33040, Key West, FL",24.5550593,-81.7799871
"95062, Santa Cruz, CA",36.9677899,-121.9871217
"22033, Fairfax, VA",38.8735614,-77.3898602
"38671, Southaven, MS",34.9837306,-89.99067339999999
"49203, Jackson, MI",42.2085364,-84.406761
"78526, Brownsville, TX",26.014378,-97.4597725
"27530, Goldsboro, NC",35.3895955,-78.0880129
"98036, Lynnwood, WA",47.8140773,-122.2718563
"7753, Neptune, NJ",40.2240869,-74.0887576
"72758, Rogers, AR",36.2989178,-94.17185420000001
"46385, Valparaiso, IN",41.4730948,-87.0611412
"50266, West Des Moines, IA",41.5680235,-93.8146526
"20032, Washington, DC",38.8359358,-77.004626
"70458, Slidell, LA",30.2396138,-89.8224054
"46037, Fishers, IN",39.9616798,-85.9406745
"45373, Troy, OH",40.0394982,-84.20327669999999
"49120, Niles, MI",41.8297694,-86.2541768
"90029, Los Angeles, CA",34.0880507,-118.2965121
"43065, Powell, OH",40.1578402,-83.07518689999999
"95111, San Jose, CA",37.28566319999999,-121.8277925
"50315, Des Moines, IA",41.5346558,-93.61164939999999
"78217, San Antonio, TX",29.53896599999999,-98.42390549999999
"95926, Chico, CA",39.7461315,-121.8448745
"85704, Tucson, AZ",32.3395031,-110.9864294
"91764, Ontario, CA",34.0739866,-117.6141457
"30165, Rome, GA",34.2564774,-85.1687212
"60090, Wheeling, IL",42.1335205,-87.9187711
"34761, Ocoee, FL",28.5830551,-81.52672820000001
"70118, New Orleans, LA",29.9450835,-90.1261013
"61201, Rock Island, IL",41.4898568,-90.5730713
"19082, Upper Darby, PA",39.9573936,-75.2654063
"30019, Dacula, GA",33.9887165,-83.8979573
"60653, Chicago, IL",41.820267,-87.603826
"98382, Sequim, WA",48.0795365,-123.1018437
"33016, Hialeah, FL",25.8925211,-80.3352364
"48105, Ann Arbor, MI",42.3295957,-83.7092861
"27105, Winston-Salem, NC",36.1568627,-80.2432839
"30115, Canton, GA",34.2264431,-84.41726659999999
"49508, Kentwood, MI",42.8683658,-85.63320929999999
"75044, Garland, TX",32.9629396,-96.6691579
"72450, Paragould, AR",36.0525622,-90.48867969999999
"64133, Raytown, MO",39.01771859999999,-94.4490836
"7307, Jersey City, NJ",40.7473758,-74.0505752
"12601, Poughkeepsie, NY",41.7055897,-73.9283885
"30038, Lithonia, GA",33.7123305,-84.1051939
"86314, Prescott Valley, AZ",34.6062718,-112.3099336
"63385, Wentzville, MO",38.8069481,-90.85798179999999
"33428, Boca Raton, FL",26.3494101,-80.2153998
"76904, San Angelo, TX",31.4637723,-100.4370375
"8094, Monroe, NJ",39.6747922,-74.9910112
"61704, Bloomington, IL",40.4772644,-88.93180819999999
"70605, Lake Charles, LA",30.1412524,-93.2784825
"85226, Chandler, AZ",33.2872209,-111.9403254
"63114, Overland, MO",38.7048818,-90.3465971
"76513, Belton, TX",31.0560132,-97.46445299999999
"95023, Hollister, CA",36.8524545,-121.4016021
"32127, Port Orange, FL",29.1145775,-80.9745372
"80227, Lakewood, CO",39.6682515,-105.096661
"89015, Henderson, NV",36.0552472,-114.9279547
"74136, Tulsa, OK",36.0613546,-95.9515399
"75028, Flower Mound, TX",33.0478852,-97.06059979999999
"62521, Decatur, IL",39.8319859,-88.8838834
"30316, Atlanta, GA",33.723039,-84.3436881
"12401, Kingston, NY",41.9270367,-73.9973608
"80021, Westminster, CO",39.892517,-105.1142011
"76107, Fort Worth, TX",32.737615,-97.38407289999999
"40220, Louisville, KY",38.2191978,-85.6177891
"93455, Santa Maria, CA",34.9530337,-120.4357191
"63701, Cape Girardeau, MO",37.3058839,-89.51814759999999
"91016, Monrovia, CA",34.1574588,-118.0068979
"8902, North Brunswick, NJ",40.4430064,-74.4818698
"73170, Oklahoma City, OK",35.3187169,-97.55722310000002
"97217, Portland, OR",45.59087340000001,-122.6931698
"30084, Tucker, GA",33.8507937,-84.21734029999999
"78413, Corpus Christi, TX",27.6856656,-97.41109879999999
"33611, Tampa, FL",27.890814,-82.50234640000001
"2139, Cambridge, MA",42.36475590000001,-71.1032591
"8012, Gloucester, NJ",39.7891108,-75.0552739
"4240, Lewiston, ME",44.0939499,-70.1582944
"87505, Santa Fe, NM",35.616067,-105.8525154
"97222, Milwaukie, OR",45.4485068,-122.628611
"8360, Vineland, NJ",39.4787827,-75.03775019999999
"71203, Monroe, LA",32.5662435,-92.02731899999999
"48310, Sterling Heights, MI",42.5665296,-83.0683519
"32724, Deland, FL",29.028318,-81.3031179
"44512, Boardman, OH",41.0326881,-80.6659842
"83706, Boise, ID",43.5921208,-116.1933302
"70808, Baton Rouge, LA",30.4192451,-91.14489809999999
"33172, Fountainbleau, FL",25.7858514,-80.360297
"77044, Houston, TX",29.8963788,-95.16406049999999
"30305, Atlanta, GA",33.8363126,-84.38574419999999
"1040, Holyoke, MA",42.2042586,-72.6162009
"46219, Indianapolis, IN",39.7817323,-86.0450839
"90291, Los Angeles, CA",33.9962144,-118.4688776
"94040, Mountain View, CA",37.3785351,-122.086585
"19709, Middletown, DE",39.449556,-75.7163207
"91320, Thousand Oaks, CA",34.1810666,-118.9470422
"33881, Winter Haven, FL",28.0600916,-81.7021049
"89128, Las Vegas, NV",36.1988542,-115.2659777
"7105, Newark, NJ",40.7231264,-74.1416127
"30152, Kennesaw, GA",34.0041089,-84.6583745
"70056, Gretna, LA",29.8930874,-90.0279867
"85120, Apache Junction, AZ",33.3934373,-111.5647165
"27330, Sanford, NC",35.4798757,-79.1802994
"91606, Los Angeles, CA",34.1873985,-118.3900204
"77060, Houston, TX",29.938885,-95.39919069999999
"92025, Escondido, CA",33.090285,-117.0499859
"23111, Mechanicsville, VA",37.6087561,-77.3733139
"61832, Danville, IL",40.1313166,-87.6285099
"91423, Los Angeles, CA",34.1482691,-118.4338345
"19130, Philadelphia, PA",39.9682609,-75.1749671
"92395, Victorville, CA",34.4933111,-117.3028803
"96753, Kihei, HI",20.7399409,-156.4541873
"84321, Logan, UT",41.7369803,-111.8338359
"34232, Sarasota, FL",27.3346138,-82.4644445
"19063, Middletown, PA",40.199814,-76.7310806
"28273, Charlotte, NC",35.12905569999999,-80.9539475
"43110, Columbus, OH",39.8290849,-82.7886395
"93534, Lancaster, CA",34.6946278,-118.1473771
"80126, Highlands Ranch, CO",39.5511448,-104.9505671
"32547, Wright, FL",30.4557539,-86.6382869
"97080, Gresham, OR",45.484172,-122.384875
"97230, Portland, OR",45.5507889,-122.5057403
"28208, Charlotte, NC",35.212973,-80.9097127
"2920, Cranston, RI",41.7612384,-71.46555649999999
"95928, Chico, CA",39.7282839,-121.8379978
"28803, Asheville, NC",35.56714230000001,-82.5437614
"94404, Foster City, CA",37.5549479,-122.2710602
"80524, Fort Collins, CO",40.5852602,-105.084423
"14612, Greece, NY",43.2097837,-77.6930602
"17403, York, PA",39.961066,-76.7269596
"97224, Tigard, OR",45.4081316,-122.8033845
"85302, Glendale, AZ",33.5690908,-112.1728283
"90065, Los Angeles, CA",34.10885,-118.2234229
"85286, Chandler, AZ",33.2664407,-111.8210866
"20785, Greater Landover, MD",38.9140455,-76.8778612
"33155, Coral Terrace, FL",25.7459338,-80.30449569999999
"37207, Nashville, TN",36.2305398,-86.7718017
"77338, Humble, TX",29.99883119999999,-95.26215529999999
"2138, Cambridge, MA",42.3803274,-71.13891009999999
"33193, Kendall West, FL",25.7089512,-80.4380722
"37363, Ooltewah, TN",35.071635,-85.0532212
"30102, Acworth, GA",34.0659329,-84.6768796
"20743, Coral Hills, MD",38.8731268,-76.9286149
"8857, Old Bridge, NJ",40.3879889,-74.3352858
"80205, Denver, CO",39.7558119,-104.9680914
"94116, San Francisco, CA",37.7432421,-122.497668
"46224, Indianapolis, IN",39.8018594,-86.25091239999999
"77096, Houston, TX",29.6699914,-95.4830243
"96826, Honolulu, HI",21.2877723,-157.8241911
"48917, Lansing, MI",42.7287542,-84.63744840000001
"21060, Glen Burnie, MD",39.167568,-76.5892774
"64801, Joplin, MO",37.1034245,-94.5418141
"33014, Hialeah, FL",25.9109586,-80.30459669999999
"94804, Richmond, CA",37.9158152,-122.3390936
"92557, Moreno Valley, CA",33.9696912,-117.255854
"30252, McDonough, GA",33.4471669,-84.1423703
"95050, Santa Clara, CA",37.3539663,-121.9529992
"27704, Durham, NC",36.0323222,-78.8269385
"33401, West Palm Beach, FL",26.7153474,-80.0533253
"53219, Milwaukee, WI",42.996996,-87.9873724
"32506, Pensacola, FL",30.3979028,-87.3711477
"95126, San Jose, CA",37.3290122,-121.9160211
"98908, Yakima, WA",46.6022299,-120.5060955
"60409, Calumet City, IL",41.6099709,-87.5445302
"62526, Decatur, IL",39.9049392,-88.9892448
"78041, Laredo, TX",27.5676627,-99.4450439
"31405, Savannah, GA",32.0371137,-81.1747498
"76119, Fort Worth, TX",32.6765319,-97.27607599999999
"33880, Winter Haven, FL",27.9956037,-81.78963809999999
"60302, Oak Park, IL",41.89332539999999,-87.7812524
"75060, Irving, TX",32.8012869,-96.9584922
"98584, Shelton, WA",47.2150945,-123.1007066
"32707, Casselberry, FL",28.6678749,-81.31243409999999
"14225, Cheektowaga, NY",42.9202891,-78.7589558
"34983, Port Saint Lucie, FL",27.3212214,-80.3547286
"44145, Westlake, OH",41.4470451,-81.9207423
"29461, Moncks Corner, SC",33.1960027,-80.01313739999999
"90723, Paramount, CA",33.89777370000001,-118.1649291
"85086, Anthem, AZ",33.8652315,-112.1357339
"28607, Boone, NC",36.2181951,-81.6830378
"40515, Lexington, KY",37.9098504,-84.41726659999999
"71291, West Monroe, LA",32.5184775,-92.14763529999999
"60068, Park Ridge, IL",42.0085328,-87.84515270000001
"70058, Harvey, LA",29.8699332,-90.0653341
"30458, Statesboro, GA",32.4487876,-81.7831674
"33018, Hialeah, FL",25.9231399,-80.3992652
"90292, Los Angeles, CA",33.9684276,-118.4571974
"46835, Fort Wayne, IN",41.1448223,-85.0545197
"76180, North Richland Hills, TX",32.8362389,-97.2329255
"85210, Mesa, AZ",33.3902569,-111.8449346
"75075, Plano, TX",33.02087160000001,-96.7386946
"77642, Port Arthur, TX",29.9051634,-93.8960811
"37174, Spring Hill, TN",35.72228630000001,-86.8822445
"90262, Lynwood, CA",33.9198647,-118.2000277
"90069, West Hollywood, CA",34.0931603,-118.3783347
"23231, Henrico, VA",37.440438,-77.3094674
"92019, El Cajon, CA",32.7751095,-116.8556955
"98026, Edmonds, WA",47.8369467,-122.3390639
"6450, Meriden, CT",41.5254822,-72.7688226
"92084, Vista, CA",33.2143717,-117.2088167
"92243, El Centro, CA",32.792,-115.5630514
"33133, Miami, FL",25.7307897,-80.2377078
"90740, Seal Beach, CA",33.7535679,-118.0830047
"33613, Lake Magdalene, FL",28.0869646,-82.4698603
"11365, New York, NY",40.7421943,-73.7889689
"33952, Port Charlotte, FL",26.98699,-82.09518
"87401, Farmington, NM",36.72805830000001,-108.2186856
"76262, Trophy Club, TX",32.9979014,-97.1836246
"90501, Torrance, CA",33.8291867,-118.3169714
"33702, Saint Petersburg, FL",27.8512042,-82.6321376
"34653, New Port Richey, FL",28.2333343,-82.7023383
"63304, Weldon Spring, MO",38.713386,-90.6892929
"35226, Hoover, AL",33.4092779,-86.8320743
"90405, Santa Monica, CA",34.00974600000001,-118.4659576
"53218, Milwaukee, WI",43.1088758,-88.0020589
"54313, Howard, WI",44.59106389999999,-88.1096118
"48154, Livonia, MI",42.39398629999999,-83.3735966
"44146, Bedford, OH",41.3931096,-81.5365094
"51503, Council Bluffs, IA",41.2567691,-95.77212039999999
"2128, Boston, MA",42.3695431,-71.0200613
"78006, Boerne, TX",29.79466409999999,-98.7319703
"31210, Macon, GA",32.8999858,-83.7411631
"75154, Red Oak, TX",32.5332101,-96.8153
"99206, Spokane Valley, WA",47.6098115,-117.2454313
"30338, Dunwoody, GA",33.944647,-84.3226488
"92584, Menifee, CA",33.6557387,-117.185294
"15206, Pittsburgh, PA",40.4720642,-79.9136731
"80228, Lakewood, CO",39.6849237,-105.1609838
"73110, Midwest City, OK",35.45897739999999,-97.4056928
"11103, New York, NY",40.7633726,-73.9109977
"20110, Manassas, VA",38.76571819999999,-77.4811474
"91732, El Monte, CA",34.0791053,-118.0127534
"97305, Hayesville, OR",44.9828427,-122.9731864
"21208, Pikesville, MD",39.3744588,-76.745195
"78749, Austin, TX",30.2175453,-97.8558357
"50317, Des Moines, IA",41.61633010000001,-93.5509074
"43147, Pickerington, OH",39.898703,-82.7562895
"21014, Bel Air, MD",39.5359406,-76.34829309999999
"80203, Denver, CO",39.7312095,-104.9826965
"8844, Hillsborough, NJ",40.5106594,-74.6472522
"63119, Webster Groves, MO",38.5842641,-90.3513021
"60074, Palatine, IL",42.1303943,-88.02163340000001
"89523, Reno, NV",39.5444839,-119.950926
"53154, Oak Creek, WI",42.8858503,-87.8631362
"80247, Denver, CO",39.6974551,-104.8746508
"38018, Memphis, TN",35.1376546,-89.7661527
"55407, Minneapolis, MN",44.9398026,-93.2533339
"60031, Gurnee, IL",42.3652656,-87.92367469999999
"28625, Statesville, NC",35.7846006,-80.8883291
"23831, Chester, VA",37.3409042,-77.4587239
"55330, Elk River, MN",45.303218,-93.5547381
"78154, Schertz, TX",29.587207,-98.29789509999999
"77065, Jersey Village, TX",29.887725,-95.5629984
"84107, Murray, UT",40.6620696,-111.8866683
"29063, Irmo, SC",34.1252099,-81.18577359999999
"87144, Rio Rancho, NM",35.364473,-106.7470536
"33135, Miami, FL",25.7686714,-80.2349196
"89104, Las Vegas, NV",36.14975099999999,-115.0762536
"17404, Manchester, PA",40.0631514,-76.7183005
"48239, Redford, MI",42.3792122,-83.2880591
"55369, Maple Grove, MN",45.1255339,-93.45091239999999
"75081, Richardson, TX",32.9559018,-96.6958939
"77035, Houston, TX",29.64645269999999,-95.4935119
"84020, Draper, UT",40.4933991,-111.8330106
"48423, Davison, MI",43.0347491,-83.5180063
"73401, Ardmore, OK",34.16811630000001,-97.1359377
"30213, Fairburn, GA",33.5670562,-84.5810418
"48127, Dearborn Heights, MI",42.3446054,-83.2827093
"94578, San Leandro, CA",37.7050703,-122.1235054
"37643, Elizabethton, TN",36.3487196,-82.21068760000001
"19958, Lewes, DE",38.7745565,-75.13934979999999
"27502, Apex, NC",35.7178049,-78.9175088
"92308, Apple Valley, CA",34.3965399,-117.1500048
"38118, Memphis, TN",35.0277847,-89.9346659
"53188, Waukesha, WI",43.0165459,-88.29476749999999
"30294, Conley, GA",33.6418635,-84.3357992
"93313, Bakersfield, CA",35.1090685,-119.0227159
"11367, New York, NY",40.7295546,-73.8213213
"46260, Indianapolis, IN",39.89761,-86.1840193
"86004, Flagstaff, AZ",35.1982836,-111.651302
"63901, Poplar Bluff, MO",36.7569994,-90.392888
"89012, Henderson, NV",36.0161023,-115.0584612
"90638, La Mirada, CA",33.9045543,-118.0127534
"90008, Los Angeles, CA",34.0083231,-118.3491169
"92307, Apple Valley, CA",34.5008311,-117.1858759
"86442, Bullhead City, AZ",35.0771847,-114.5599015
"97128, McMinnville, OR",45.2107513,-123.1944874
"60654, Chicago, IL",41.8929153,-87.63591249999999
"40272, Louisville, KY",38.0950217,-85.8281458
"93726, Fresno, CA",36.7949518,-119.7541856
"50023, Ankeny, IA",41.7332684,-93.63191309999999
"30701, Calhoun, GA",34.5156085,-84.9609464
"95757, Elk Grove, CA",38.3591901,-121.422761
"19966, Millsboro, DE",38.59150229999999,-75.2913018
"19115, Philadelphia, PA",40.0890568,-75.0435916
"23060, Glen Allen, VA",37.663282,-77.5275463
"91401, Los Angeles, CA",34.1789379,-118.4338345
"77471, Rosenberg, TX",29.543368,-95.8775964
"94044, Pacifica, CA",37.6327914,-122.4900652
"90241, Downey, CA",33.9372725,-118.1298234
"37214, Nashville, TN",36.1404654,-86.65103289999999
"34110, Naples, FL",26.2904551,-81.78963809999999
"83201, Pocatello, ID",42.8945981,-112.3540741
"92069, San Marcos, CA",33.1630271,-117.1617685
"80004, Arvada, CO",39.8163023,-105.1200482
"90266, Manhattan Beach, CA",33.8908371,-118.3987842
"66212, Overland Park, KS",38.946393,-94.6760395
"52240, Iowa City, IA",41.6578257,-91.53461689999999
"98502, Olympia, WA",47.0451842,-122.895355
"75501, Texarkana, TX",33.425125,-94.04768820000001
"29209, Columbia, SC",33.9425519,-80.9539475
"1760, Natick, MA",42.2775281,-71.3468091
"94523, Pleasant Hill, CA",37.9448915,-122.0723816
"91205, Glendale, CA",34.1337367,-118.2468148
"91360, Thousand Oaks, CA",34.2024698,-118.8741429
"75220, Dallas, TX",32.8621631,-96.8726295
"93940, Monterey, CA",36.5972925,-121.8977688
"92840, Garden Grove, CA",33.7876938,-117.9336874
"92505, Riverside, CA",33.913326,-117.4908738
"17112, Lower Paxton, PA",40.3416765,-76.8028933
"93030, Oxnard, CA",34.2054029,-119.1681373
"94123, San Francisco, CA",37.8020405,-122.4382307
"84047, Midvale, UT",40.61129589999999,-111.8985922
"55987, Winona, MN",44.0553908,-91.6663523
"94551, Livermore, CA",37.7537708,-121.7879244
"3103, Manchester, NH",42.9561485,-71.4418101
"92649, Huntington Beach, CA",33.721051,-118.0478826
"38002, Lakeland, TN",35.2306435,-89.7403606
"10950, Monroe, NY",41.3306493,-74.1868135
"17013, Carlisle, PA",40.2010241,-77.20027449999999
"94582, San Ramon, CA",37.7639471,-121.9131761
"98056, Renton, WA",47.5105794,-122.1909906
"95973, Chico, CA",39.7282839,-121.8379978
"46112, Brownsburg, IN",39.8638689,-86.39847929999999
"30092, Peachtree Corners, GA",33.9851868,-84.238417
"27217, Burlington, NC",36.1602349,-79.4028639
"92262, Palm Springs, CA",33.8613433,-116.5727815
"11102, New York, NY",40.7732937,-73.9286341
"91913, Chula Vista, CA",32.6168755,-116.9970153
"78218, San Antonio, TX",29.4942966,-98.4019754
"22015, Burke, VA",38.7843884,-77.2807423
"44095, Eastlake, OH",41.65393590000001,-81.4503924
"60047, Lake Zurich, IL",42.19696889999999,-88.0934108
"92821, Brea, CA",33.9316733,-117.8604472
"95691, West Sacramento, CA",38.5804609,-121.530234
"8901, New Brunswick, NJ",40.4861552,-74.45185
"60030, Grayslake, IL",42.3279674,-88.0411993
"92373, Redlands, CA",34.0127473,-117.1617685
"94303, Palo Alto, CA",37.4530553,-122.1178261
"96701, Aiea, HI",21.3791929,-157.9308871
"91604, Los Angeles, CA",34.1366259,-118.3987842
"98366, Port Orchard, WA",47.5248539,-122.5788392
"8096, Deptford, NJ",39.8227054,-75.11951069999999
"89431, Sparks, NV",39.5401545,-119.7483949
"21244, Windsor Mill, MD",39.3326927,-76.7595659
"33010, Hialeah, FL",25.839203,-80.2823063
"43402, Bowling Green, OH",41.3747744,-83.6513229
"2909, Providence, RI",41.8131441,-71.4596201
"34205, Bradenton, FL",27.4872771,-82.5889012
"20016, Washington, DC",38.9387704,-77.0967357
"28214, Charlotte, NC",35.2833293,-80.9760556
"33032, Princeton, FL",25.5384417,-80.40894399999999
"91767, Pomona, CA",34.0836851,-117.7432015
"90403, Santa Monica, CA",34.0279895,-118.495155
"12020, Milton, NY",43.0336861,-73.8526225
"12901, Plattsburgh, NY",44.6994873,-73.4529124
"40207, Louisville, KY",38.262469,-85.64862509999999
"68104, Omaha, NE",41.2954735,-95.99383390000001
"55082, Stillwater, MN",45.056004,-92.80884429999999
"47403, Bloomington, IN",39.0841668,-86.6006249
"92705, North Tustin, CA",33.7532358,-117.7901088
"33707, Gulfport, FL",27.7514295,-82.7293193
"59405, Great Falls, MT",47.5052849,-111.3007715
"26508, Brookhaven, WV",39.6117487,-79.904506
"83815, Coeur d'Alene, ID",47.7276369,-116.781196
"63146, Creve Coeur, MO",38.6887567,-90.4643906
"43221, Upper Arlington, OH",40.0097883,-83.0683519
"76210, Denton, TX",33.1362221,-97.0821162
"20707, Laurel, MD",39.10436869999999,-76.8836261
"89032, North Las Vegas, NV",36.2137322,-115.1770586
"10304, New York, NY",40.6047352,-74.0916944
"53066, Oconomowoc, WI",43.1114407,-88.4994512
"75069, McKinney, TX",33.1632842,-96.5890166
"95991, Yuba City, CA",39.1406607,-121.6177394
"6106, Hartford, CT",41.743111,-72.70380469999999
"90505, Torrance, CA",33.8101772,-118.3520389
"98087, Lynnwood, WA",47.85839,-122.2709005
"18018, Bethlehem, PA",40.6238902,-75.3936808
"90808, Long Beach, CA",33.8197825,-118.1064156
"37919, Knoxville, TN",35.9073934,-84.0061661
"85614, Green Valley, AZ",31.836845,-111.0698858
"27560, Morrisville, NC",35.823483,-78.8255621
"33573, Sun City Center, FL",27.7254716,-82.3560389
"98198, Des Moines, WA",47.39648829999999,-122.3107873
"21042, Ellicott City, MD",39.2590567,-76.8951551
"72023, Cabot, AR",34.9748751,-92.0163297
"89506, Reno, NV",39.6837974,-119.8583772
"33710, Saint Petersburg, FL",27.791959,-82.723924
"29605, Greenville, SC",34.7671945,-82.37773349999999
"18704, Kingston, PA",41.2617481,-75.8968635
"18966, Northampton, PA",40.19191199999999,-75.0260667
"95833, Sacramento, CA",38.6137699,-121.5084511
"20814, Bethesda, MD",39.0038878,-77.1053673
"43614, Toledo, OH",41.5993157,-83.6295222
"83401, Idaho Falls, ID",43.4926602,-112.0407506
"60103, Bartlett, IL",41.9752644,-88.21690269999999
"8302, Bridgeton, NJ",39.4269713,-75.2341766
"20120, Centreville, VA",38.8629803,-77.4816693
"29710, Clover, SC",35.1112478,-81.2264646
"38301, Jackson, TN",35.5821649,-88.8455037
"60564, Naperville, IL",41.6967777,-88.19741479999999
"28405, Wilmington, NC",34.2426224,-77.8252923
"78418, Corpus Christi, TX",27.6164159,-97.286868
"95843, Sacramento, CA",38.7149071,-121.3598812
"74014, Broken Arrow, OK",36.0643003,-95.6668306
"84123, Taylorsville, UT",40.6609843,-111.9164779
"60137, Glen Ellyn, IL",41.853696,-88.0607565
"80128, Ken Caryl, CO",39.5761957,-105.0674317
"95129, San Jose, CA",37.3052272,-121.9871217
"97527, Grants Pass, OR",42.3330418,-123.3730521
"66048, Leavenworth, KS",39.3103522,-94.9279371
"44121, South Euclid, OH",41.5233346,-81.5322149
